location,country,city,latitude,longitude,pm25,pm10,no2,o3,last_updated,size
CORDOBA,AR,Buenos Aires,-34.60441667,-58.39165,,22.0,24.465999999999998,,2024-05-28T03:00:00+00:00,1
CENTENARIO,AR,Buenos Aires,-34.60638,-58.43194,,21.0,0.0,,2024-05-28T03:00:00+00:00,1
LA BOCA,AR,Buenos Aires,-34.62527,-58.365550000000006,,29.0,67.752,,2024-05-28T03:00:00+00:00,1
Nyírjes,HU,Nyírjes,47.899660000000004,19.946894,8.0,16.0,1.1,49.966,2024-05-27T23:00:00+00:00,1
K-Puszta,HU,K-Puszta,46.96524399999999,19.54528,11.0,16.0,4.8,2.322,2024-05-27T22:00:00+00:00,1
Szeged 2 Rózsa u.,HU,Szeged 2 Rózsa u.,46.266619999999996,20.153050000000004,11.0,25.0,34.7,28.939,2024-05-27T21:00:00+00:00,1
Perth,AU,Tasmania Region,-41.578,147.172,3.0,5.0,,,2024-05-27T13:54:07+00:00,1
Westbury,AU,Tasmania Region,-41.53,146.835,10.0,11.0,,,2024-05-27T13:54:07+00:00,1
Wynyard,AU,Tasmania Region,-40.992,145.718,21.0,21.0,,,2024-05-27T13:54:07+00:00,1
Hadspen,AU,Tasmania Region,-41.503,147.067,2.0,3.0,,,2024-05-27T13:54:07+00:00,1
Smithton,AU,Tasmania Region,-40.85,145.133,4.0,4.0,,,2024-05-27T13:54:07+00:00,1
Deloraine,AU,Tasmania Region,-41.523,146.658,12.0,14.0,,,2024-05-27T13:54:07+00:00,1
West Ulverstone,AU,Tasmania Region,-41.159,146.146,5.0,10.0,,,2024-05-27T13:54:07+00:00,1
Sheffield,AU,Tasmania Region,-41.43,146.338,6.0,7.0,,,2024-05-27T13:54:07+00:00,1
Latrobe,AU,Tasmania Region,-41.238,146.42,28.0,30.0,,,2024-05-27T13:54:07+00:00,1
Emu River,AU,Tasmania Region,-41.108,145.883,5.0,5.0,,,2024-05-27T13:54:07+00:00,1
Longford,AU,Tasmania Region,-41.595,147.122,19.0,22.0,,,2024-05-27T13:54:06+00:00,1
Devonport,AU,Tasmania Region,-41.185,146.345,17.0,17.0,,,2024-05-27T13:54:06+00:00,1
Exeter,AU,Tasmania Region,-41.303,146.951,5.0,7.0,,,2024-05-27T13:52:07+00:00,1
Fingal,AU,Tasmania Region,-41.638,147.967,8.0,11.0,,,2024-05-27T13:52:07+00:00,1
St Helens,AU,Tasmania Region,-41.32,148.25,1.0,4.0,,,2024-05-27T13:52:07+00:00,1
Campbell Town,AU,Tasmania Region,-41.928,147.491,6.0,7.0,,,2024-05-27T13:52:07+00:00,1
South Launceston,AU,Tasmania Region,-41.465,147.148,33.0,35.0,,,2024-05-27T13:52:07+00:00,1
Scottsdale,AU,Tasmania Region,-41.162,147.515,18.0,21.0,,,2024-05-27T13:52:07+00:00,1
Lilydale,AU,Tasmania Region,-41.25,147.217,14.0,16.0,,,2024-05-27T13:52:07+00:00,1
Queenstown,AU,Tasmania Region,-42.081,145.553,13.0,15.0,,,2024-05-27T13:52:07+00:00,1
Ti Tree Bend,AU,Tasmania Region,-41.419,147.124,45.0,47.0,,,2024-05-27T13:52:06+00:00,1
George Town,AU,Tasmania Region,-41.111,146.836,4.0,5.0,,,2024-05-27T13:52:06+00:00,1
Bream Creek,AU,Tasmania Region,-42.819,147.817,1.0,2.0,,,2024-05-27T13:50:11+00:00,1
New Norfolk,AU,Tasmania Region,-42.776,147.054,33.0,35.0,,,2024-05-27T13:50:08+00:00,1
Triabunna,AU,Tasmania Region,-42.509,147.913,3.0,4.0,,,2024-05-27T13:50:07+00:00,1
Oatlands,AU,Tasmania Region,-42.3,147.372,5.0,5.0,,,2024-05-27T13:50:07+00:00,1
Glenorchy,AU,Tasmania Region,-42.842,147.271,17.0,19.0,,,2024-05-27T13:50:07+00:00,1
Cygnet,AU,Tasmania Region,-43.159,147.072,10.0,13.0,,,2024-05-27T13:50:07+00:00,1
Gretna,AU,Tasmania Region,-42.684,146.936,16.0,18.0,,,2024-05-27T13:50:07+00:00,1
Geeveston,AU,Tasmania Region,-43.17,146.925,18.0,27.0,,,2024-05-27T13:50:07+00:00,1
Mornington,AU,Tasmania Region,-42.861,147.404,4.0,6.0,,,2024-05-27T13:50:06+00:00,1
Huonville,AU,Tasmania Region,-43.03,147.05,20.0,25.0,,,2024-05-27T13:50:06+00:00,1
Judbury,AU,Tasmania Region,-43.01,146.94,2.0,9.0,,,2024-05-27T13:50:06+00:00,1
Hobart,AU,Tasmania Region,-42.855,147.315,9.0,11.0,,,2024-05-27T13:50:05+00:00,1
Tatabánya Ságvári u.,HU,Tatabánya Ságvári u.,47.56324999999999,18.4087,8.0,13.0,7.2,22.273999999999997,2024-05-27T12:00:00+00:00,1
City Center,BG,,43.023,25.1037,3.125,3.125,0.0,,2024-05-27T10:29:00+00:00,1
Park Yamacha,BG,,41.9279,25.5542,22.22,22.24,,,2024-05-27T10:29:00+00:00,1
"Park Kenana, Haskovo",BG,,41.9413,25.5446,23.18,23.19,,,2024-05-27T10:29:00+00:00,1
Targovishte 2,BG,,43.2578,26.5299,5.15,5.15,0.0,,2024-05-27T10:29:00+00:00,1
Markotea Park of Gabrovo,BG,,42.8552,25.3201,3.17,3.17,,,2024-05-27T10:29:00+00:00,1
Svoboda Square of Sevlievo,BG,,43.026,25.1043,2.91,2.91,,,2024-05-27T10:29:00+00:00,1
"C. Restoy, 51, Almeria, Spain",ES,,36.8466,-2.4649,12.51,12.51,,,2024-05-27T10:29:00+00:00,1
NPGGS Hristo Botev,BG,,42.0262,23.976,59.82,60.52,,,2024-05-27T10:29:00+00:00,1
Southern Industrial Zone of Plovdiv,BG,,42.1262,24.7288,43.81,43.81,,,2024-05-27T10:29:00+00:00,1
"Svilengrad, Bulgaria",GR,,41.766,26.2054,3.35,3.53,,,2024-05-27T10:29:00+00:00,1
Technical University of Gabrovo,BG,,42.8757,25.3164,14.035,14.12,25.24,,2024-05-27T10:29:00+00:00,1
Targovishte 1,NO,,43.2468,26.5723,4.97,4.97,0.0,,2024-05-27T10:29:00+00:00,1
City Center,BG,,42.9088,23.7994,7.95,8.08,13.1,,2024-05-27T10:29:00+00:00,1
Sevlievo,BG,,43.0244,25.1076,3.18,3.07,,,2024-05-27T10:29:00+00:00,1
PGOSU of Duptnitsa,BG,,42.2669,23.117,5.18,5.18,,,2024-05-27T10:29:00+00:00,1
Haskovo Municipality,BG,,41.9313,25.5575,3.06,3.06,,,2024-05-27T10:29:00+00:00,1
"North Industrial Zone, Gabrovo",BG,,42.9004,25.3275,15.59,15.63,4.76,,2024-05-27T10:29:00+00:00,1
Etar neighbourhood of Gabrovo,BG,,42.8098,25.3587,2.81,2.87,,,2024-05-27T10:29:00+00:00,1
Bryanska St.,BG,,42.8796,25.3178,1.42,1.52,3.07,,2024-05-27T10:29:00+00:00,1
Patriarh Evtimii St.,BG,,42.0535,25.5813,0.0,0.0,3.07,,2024-05-27T10:29:00+00:00,1
Bryanska St.,BG,,42.8796,25.3178,0.4,0.41,0.0,,2024-05-27T10:29:00+00:00,1
"Neighbourhood South, Sevlievo",BG,,43.0175,25.0981,3.8,3.8,,,2024-05-27T10:29:00+00:00,1
"Belorusia Square, Gabrovo",BG,,42.8877,25.3216,3.21,2.96,,,2024-05-27T10:29:00+00:00,1
Technical University of Gabrovo,BG,,42.8757,25.3164,2.96,2.96,45.75,,2024-05-27T10:29:00+00:00,1
Benkovski School,BG,,41.38,25.2552,2.41,2.41,,,2024-05-27T10:29:00+00:00,1
"North Industrial Zone, Sevlievo",BG,,43.029,25.0916,24.38,24.45,,,2024-05-27T10:29:00+00:00,1
Ran Bosilek School of Gabrovo,BG,,42.8752,25.3229,11.12,11.12,,,2024-05-27T10:29:00+00:00,1
"C. Restoy, 51, Almeria, Spain",ES,,36.8466,-2.4649,3.92,5.6,,,2024-05-27T10:29:00+00:00,1
"Suvorovo, Bulgaria",BG,,43.3314,27.5872,3.86,3.86,,,2024-05-27T10:29:00+00:00,1
Svoboda Square of Sevlievo,BG,,43.026,25.1043,21.48,16.61,,,2024-05-27T10:29:00+00:00,1
"Bulgaria, Sofia, Darvenitsa",BG,,42.6695,23.359,18.81,18.9,,,2024-05-27T10:28:00+00:00,1
Southern Industrial Zone of Plovdiv,BG,,42.1262,24.7288,4.91,4.91,,,2024-05-27T10:28:00+00:00,1
Dishai Dimitrovgrad,BG,,42.0529,25.6197,19.27,19.55,16.51,,2024-05-27T10:28:00+00:00,1
Ran Bosilek School of Gabrovo,BG,,42.8752,25.3229,3.27,3.27,,,2024-05-27T10:28:00+00:00,1
4B Bulgaria Blvrd,BG,,42.0582,25.5927,2.99,2.99,1.53,,2024-05-27T10:28:00+00:00,1
"North Industrial Zone, Sevlievo",BG,,43.029,25.0916,2.84,2.84,,,2024-05-27T10:28:00+00:00,1
Vasil Levski School of Ivaylovgrad,GR,,41.5287,26.1265,30.32,30.32,,,2024-05-27T10:28:00+00:00,1
Park Yamacha,BG,,41.9279,25.5542,2.72,2.72,,,2024-05-27T10:28:00+00:00,1
"Belorusia Square, Gabrovo",BG,,42.8877,25.3216,11.13,11.29,,,2024-05-27T10:28:00+00:00,1
Demo Station,BG,,43.213,27.6468,3.885,3.885,2324.19,,2024-05-27T10:28:00+00:00,1
"Skravena, Botevgrad",BG,,42.9696,23.7812,2.69,2.69,,,2024-05-27T10:28:00+00:00,1
Markotea Park of Gabrovo,BG,,42.8552,25.3201,13.51,13.52,,,2024-05-27T10:28:00+00:00,1
PGOSU of Duptnitsa,BG,,42.2669,23.117,12.54,12.64,,,2024-05-27T10:28:00+00:00,1
NPGGS Hristo Botev,BG,,42.0262,23.976,4.04,4.05,,,2024-05-27T10:28:00+00:00,1
Demo Station,BG,,43.213,27.6468,15.91,16.25,4967.9,,2024-05-27T10:28:00+00:00,1
Nikolay Katranov School of Svishtov,BG,,43.6175,25.3499,36.38,36.38,,,2024-05-27T10:28:00+00:00,1
Vasil Levski School of Ivaylovgrad,GR,,41.5287,26.1265,2.43,2.43,,,2024-05-27T10:28:00+00:00,1
Dishai Dimitrovgrad,BG,,42.0532,25.6195,2.84,2.84,0.0,,2024-05-27T10:28:00+00:00,1
"Park Kenana, Haskovo",BG,,41.9413,25.5446,2.36,2.36,,,2024-05-27T10:28:00+00:00,1
Nikolay Katranov School of Svishtov,BG,,43.6175,25.3499,2.72,3.14,,,2024-05-27T10:28:00+00:00,1
4B Bulgaria Blvrd,BG,,42.0582,25.5927,20.19,20.33,31.58,,2024-05-27T10:28:00+00:00,1
City Center,BG,,43.023,25.1037,31.865,31.95,21.87,,2024-05-27T10:28:00+00:00,1
Docho Mihaylov School of Tervel,BG,,43.7437,27.4144,5.15,5.15,,,2024-05-27T10:28:00+00:00,1
"North Industrial Zone, Gabrovo",BG,,42.9004,25.3275,3.56,3.56,5.94,,2024-05-27T10:28:00+00:00,1
Docho Mihaylov School of Tervel,BG,,43.7437,27.4144,18.04,20.21,,,2024-05-27T10:28:00+00:00,1
Haskovo Municipality,BG,,41.9313,25.5575,24.44,24.63,,,2024-05-27T10:28:00+00:00,1
"Skravena, Botevgrad",BG,,42.9696,23.7812,13.63,13.94,,,2024-05-27T10:28:00+00:00,1
"Bulgaria, Sofia, Darvenitsa",BG,,42.6695,23.359,4.06,4.06,,,2024-05-27T10:28:00+00:00,1
Etar neighbourhood of Gabrovo,BG,,42.8098,25.3587,10.83,11.67,,,2024-05-27T10:28:00+00:00,1
City Center,BG,,42.9088,23.7994,25.26,24.93,9.99,,2024-05-27T10:28:00+00:00,1
"Neighbourhood South, Sevlievo",BG,,43.0175,25.0981,25.31,25.41,,,2024-05-27T10:28:00+00:00,1
Park DNA Vratsa,BG,,43.2077,23.549,2.56,2.77,,,2024-05-27T10:14:00+00:00,1
"Mladost, Gabrovo, Bulgaria",BG,,42.8931,25.312,3.44,3.51,,,2024-05-27T10:14:00+00:00,1
Park DNA Vratsa,BG,,43.2079,23.5488,2.5,2.54,,,2024-05-27T10:14:00+00:00,1
,BG,,42.881,25.3173,6.88,6.88,,,2024-05-27T10:14:00+00:00,1
Kaszów,PL,Kaszów,50.025027999602756,19.726832999784897,,,11.9255,26.822024000000003,2024-05-27T10:00:00+00:00,1
시화산단,KR, ,37.3367,126.7246,9.0,27.0,12.6094,44.989996999999995,2024-05-27T10:00:00+00:00,1
"Wałbrzych, ul. Wysockiego",PL,Wałbrzych,50.76872899964278,16.269676999900874,,21.6505,5.47522,48.65493,2024-05-27T10:00:00+00:00,1
중2동,KR, ,37.4939,126.7701,11.0,27.0,13.7386,44.821179,2024-05-27T10:00:00+00:00,1
Ring 3 Økern,NO,Oslo,59.92845400000001,10.801863000000003,32.106072,136.534981,56.266105,,2024-05-27T10:00:00+00:00,1
묵호항,KR, ,37.547875,129.11092699999998,9999.0,14.0,9.7864,54.106169,2024-05-27T10:00:00+00:00,1
MB Vrbanski,SI,MB Vrbanski,46.568683,15.631008,,14.0,,,2024-05-27T10:00:00+00:00,1
"Phichit Provincial , Phichit",TH,Phichit,16.442554,100.322756,8.2,18.0,9.41,26.16679,2024-05-27T10:00:00+00:00,1
"Nong Chok District Office, Bangkok",TH,Bangkok,13.855362,100.86267,17.8,61.0,,,2024-05-27T10:00:00+00:00,1
Bangeløkka,NO,Drammen,59.733269999415356,10.211669999560293,12.52475,23.588578,19.274644,,2024-05-27T10:00:00+00:00,1
Residence for Dept. of Mineral Resources,TH,Samut Prakan,13.652141,100.531805,8.4,65.0,0.0,7.596809999999999,2024-05-27T10:00:00+00:00,1
Bu Yai Bai Hall Station,TH,Prachin Buri,13.917563,101.590529,11.6,32.0,,10.97317,2024-05-27T10:00:00+00:00,1
원당,KR, ,37.5941,126.69859999999998,11.0,21.0,12.7976,50.223355,2024-05-27T10:00:00+00:00,1
"Dąbki, ul. Sztormowa",PL,Dąbki,54.37749199957509,16.31072799975216,12.9402,18.2038,2.64918,,2024-05-27T10:00:00+00:00,1
Bankplassen,NO,Lillehammer,61.11294999939829,10.464869999840056,9.674722,22.160111,20.149583,,2024-05-27T10:00:00+00:00,1
Prestebakke,SE,Halden,58.99651999946765,11.527669999704491,,,,38.614,2024-05-27T10:00:00+00:00,1
중앙동(강원),KR, ,37.3528063,127.9475408,9999.0,9999.0,18818118.0,8440055.91,2024-05-27T10:00:00+00:00,1
소룡동,KR, ,35.973333,126.651417,11.0,34.0,35.193400000000004,46.762586,2024-05-27T10:00:00+00:00,1
Nong Bua Lamphu Provincial Administrative Organization,TH,Nong Bua Lamphu,17.193824,102.4585009,8.2,,,,2024-05-27T10:00:00+00:00,1
"Somdet Phra Srinagarindra Park, Roi Et",TH,Roi Et,16.057537,103.651372,13.0,,,,2024-05-27T10:00:00+00:00,1
Danmarks plass,NO,Bergen,60.374079999664936,5.3404199998004485,4.994231,9.210953,20.635324,,2024-05-27T10:00:00+00:00,1
"Siedlce, ul. Konarskiego",PL,Siedlce,52.172145,22.282001,6.6,50.1,,,2024-05-27T10:00:00+00:00,1
성남대로(모란역),KR, ,37.4339,127.12930000000001,3.0,24.0,33.876,37.13996,2024-05-27T10:00:00+00:00,1
Macleod,AU,Melbourne,-37.722477,145.0576,7.26,,,,2024-05-27T10:00:00+00:00,1
Geelong South,AU,Geelong,-38.17356,144.37030000000001,11.89,62.18,54.578,0.5993039,2024-05-27T10:00:00+00:00,1
Dandenong,AU,Melbourne,-37.98576,145.1987,12.49,14.75,24.465999999999998,10.97317,2024-05-27T10:00:00+00:00,1
Bekkestua,NO,Bærum,59.91821999963663,10.583930000074991,14.0,17.2,11.303027,,2024-05-27T10:00:00+00:00,1
영등포구,KR, ,37.526339,126.896256,4.0,20.0,21.454800000000002,50.392173,2024-05-27T10:00:00+00:00,1
"Belsk Duży, IGF PAN",PL,Belsk Duży,51.83524199928818,20.791912000372314,,25.98,5.72166,46.335360789999996,2024-05-27T10:00:00+00:00,1
다사읍,KR, ,35.864922,128.457164,3.0,18.0,11.1038,46.93140399999999,2024-05-27T10:00:00+00:00,1
성황동,KR, ,36.814170999999995,127.152144,4.0,21.0,29.171,45.496451,2024-05-27T10:00:00+00:00,1
서변동,KR, ,35.911047,128.59975899999998,5.0,23.0,12.232999999999999,38.152868,2024-05-27T10:00:00+00:00,1
"Kołobrzeg, ul. Żółkiewskiego",PL,Kołobrzeg,54.17932399966206,15.596342000199911,5.42944,9.04556,,,2024-05-27T10:00:00+00:00,1
Bendigo,AU,Bendigo,-36.7784,144.300064,9.18,,,,2024-05-27T10:00:00+00:00,1
"Działdowo, ul. Polna",PL,Działdowo,53.230041999617335,20.168666000003505,9.46997,20.3429,,,2024-05-27T10:00:00+00:00,1
Bang Bon 5 Market,TH,Bangkok,13.639165,100.372958,13.5,40.0,,,2024-05-27T10:00:00+00:00,1
장계면,KR, ,35.72812,127.587812,9.0,25.0,10.350999999999999,53.262079,2024-05-27T10:00:00+00:00,1
"Skarżysko-Kamienna, ul. 1 Maja",PL,Skarżysko-Kamienna,51.11584199942993,20.891592999817473,4.3,12.7,5.0,49.794,2024-05-27T10:00:00+00:00,1
전의면,KR, ,36.68121,127.19634,7.0,13.0,9.9746,27.01088,2024-05-27T10:00:00+00:00,1
매포읍,KR, ,37.0334,128.2957,21.0,32.0,7.9044,53.34648800000001,2024-05-27T10:00:00+00:00,1
CARABAYLLO,PE,Lima,-11.902194,-77.033639,1.42,4.24,21.643,3.1260999999999997,2024-05-27T10:00:00+00:00,1
Big C Supercenter Bang Na,TH,Bangkok,13.667987,100.635313,17.2,64.0,,,2024-05-27T10:00:00+00:00,1
"Wysowa-Zdrój, Park Zdrojowy",PL,Uście Gorlickie Wysowa,49.44017499953622,21.178086999859442,,13.3124,,,2024-05-27T10:00:00+00:00,1
Vangsvegen-Disen,NO,Hamar,60.796459,11.096757000000002,16.030693,26.342809,17.082332,,2024-05-27T10:00:00+00:00,1
Hrastnik,SI,Hrastnik,46.144213,15.088097,,12.0,,,2024-05-27T10:00:00+00:00,1
경안동,KR, ,37.4112,127.25790000000002,7.0,27.0,14.3032,50.392173,2024-05-27T10:00:00+00:00,1
"Lubsko, ul. Strzelecka",PL,Lubsko,51.784252,14.958101,8.16873,17.2393,2.43355,,2024-05-27T10:00:00+00:00,1
King Mongkut's University of Technology Thonburi,TH,Bangkok,13.651004,100.496673,11.3,41.0,,,2024-05-27T10:00:00+00:00,1
Mukdahan Provincial Stadium,TH,Mukdahan,16.54257,104.7192,30.2,47.0,22.584,38.82814,2024-05-27T10:00:00+00:00,1
"Kudowa-Zdrój, ul. Szkolna ",PL,Kudowa-Zdrój,50.43836299942263,16.243756000088194,7.37641,18.1575,,,2024-05-27T10:00:00+00:00,1
서강동,KR, ,34.741301,127.72596699999998,6.0,22.0,12.0448,42.964181,2024-05-27T10:00:00+00:00,1
Félix Osores,MX,Querétaro,20.636819444444,-100.46388333333002,12.18,,4.55444,33.594781999999995,2024-05-27T10:00:00+00:00,1
"Chojnów, ul. S. Małachowskiego ",PL,Chojnów,51.27427999966083,15.929803999850408,6.7601,12.9789,,,2024-05-27T10:00:00+00:00,1
"Biała, ul. Kmicica",PL,Biała,52.602534,19.6451,7.0,25.0,,,2024-05-27T10:00:00+00:00,1
"Biała Podlaska, ul. Orzechowa",PL,Biała Podlaska,52.029193999520686,23.149389000400575,,-1.0,4.6,44.547999999999995,2024-05-27T10:00:00+00:00,1
"Bydgoszcz, ul. Jeździecka",PL,Bydgoszcz,53.175214,18.044164,,,10.9,32.336,2024-05-27T10:00:00+00:00,1
"Białystok, ul. Warszawska",PL,Białystok,53.129306,23.181744,,25.26,,21.93,2024-05-27T10:00:00+00:00,1
PUENTE PIEDRA,PE,Lima,-11.863253,-77.074133,0.65,66.41,10.9156,7.850036999999999,2024-05-27T10:00:00+00:00,1
Sirichit Thai Cultural Conservation Ground,TH,Kamphaeng Phet,16.475374,99.525425,8.1,18.0,9.41,27.01088,2024-05-27T10:00:00+00:00,1
"Zabrze, ul. M. Skłodowskiej-Curie",PL,Zabrze,50.317072,18.771258,,12.8358,6.90869,49.84775,2024-05-27T10:00:00+00:00,1
Bytów Mobilna,PL,Bytów,54.172717,17.492946,7.66039,13.9044,,,2024-05-27T10:00:00+00:00,1
Birkenesobservatoriet,NO,Birkenes,58.388459999378775,8.251900000206485,,5.39,,32.766,2024-05-27T10:00:00+00:00,1
"Borsukowizna, Szkółka Leśna",PL,Borsukowizna,53.215491999705456,23.642152999850296,2.8,7.9,1.1,47.687000000000005,2024-05-27T10:00:00+00:00,1
VILLA MARIA DEL TRIUNFO,PE,Lima,-12.166389,-76.92,23.04,23.34,8.469,6.4328,2024-05-27T10:00:00+00:00,1
삼천포항,KR, ,34.91826562,128.08430936,2.0,19.0,13.5504,49.548083,2024-05-27T10:00:00+00:00,1
"Białystok, ul. Upalna",PL,Białystok,53.129419,23.108025,11.0,,,,2024-05-27T10:00:00+00:00,1
Box Hill,AU,Melbourne,-37.8287277,145.1324,10.75,,,,2024-05-27T10:00:00+00:00,1
Hurdal25,NO,Hurdal,60.37239,11.07816,,,,34.916000000000004,2024-05-27T10:00:00+00:00,1
"Ladphrao District Office, Bangkok",TH,Bangkok,13.803587,100.607535,12.0,27.0,,,2024-05-27T10:00:00+00:00,1
"Sai Mai District Office, Bangkok",TH,Bangkok,13.896035,100.660628,13.5,41.0,,,2024-05-27T10:00:00+00:00,1
Elgeseter,NO,Trondheim,63.419239,10.395945,6.286861,20.523606,8.48754,,2024-05-27T10:00:00+00:00,1
금촌동,KR, ,37.756308,126.77389800000002,6.0,24.0,17.878999999999998,44.483543,2024-05-27T10:00:00+00:00,1
"Zgierz, ul. Mielczarskiego",PL,Zgierz,51.85669199925004,19.421231000013123,5.9,21.1,6.1,47.472,2024-05-27T10:00:00+00:00,1
"Rymanów Zdrój, ul. Parkowa",PL,Rymanów-Zdrój,49.546539,21.851006,4.98417,11.6644,,,2024-05-27T10:00:00+00:00,1
파주읍,KR, ,37.83089999999999,126.83299999999998,6.0,21.0,6.2106,47.691085,2024-05-27T10:00:00+00:00,1
Brooklyn,AU,Melbourne,-37.8220978,144.8471,16.61,41.58,,,2024-05-27T10:00:00+00:00,1
"Sucha Beskidzka, ul. Nieszczyńskiej",PL,Sucha Beskidzka,49.74313099964227,19.600339000399384,,13.156,,,2024-05-27T10:00:00+00:00,1
"Parzniewice, Ujęcie Wody",PL,Parzniewice,51.29117499942742,19.517555999558013,,,4.6,45.752,2024-05-27T10:00:00+00:00,1
Yinnar,AU,Yinnar,-38.32676,146.3261,,8.76,,,2024-05-27T10:00:00+00:00,1
Bygdøy Alle,NO,Oslo,59.919299999321844,10.696510000312983,10.1,27.9,8.079167,,2024-05-27T10:00:00+00:00,1
Bærum Golfklubb,NO,Bærum,59.96017999941412,10.490229999961175,,,,28.982000000000003,2024-05-27T10:00:00+00:00,1
감물면,KR, ,36.166203,127.875173,9.0,23.0,9.41,47.353449,2024-05-27T10:00:00+00:00,1
Thai Meteorological Department,TH,Bangkok,13.666183,100.605742,12.4,31.0,5.646,7.596809999999999,2024-05-27T10:00:00+00:00,1
"Natural Resources and Environment Office, Chiangrai",TH,Chiang Rai,19.909217,99.823467,10.1,19.0,0.0,29.543150000000004,2024-05-27T10:00:00+00:00,1
"""NICOSIA RESIDENTIAL""",CY,Strovolos,35.126941679714875,33.33166503959792,,,11.36264,47.490404,2024-05-27T10:00:00+00:00,1
칠곡군,KR, ,35.990702,128.418493,9.0,23.0,5.646,47.606676,2024-05-27T10:00:00+00:00,1
3공단,KR, ,35.963042,129.376848,10.0,32.0,11.292,46.846995,2024-05-27T10:00:00+00:00,1
"Lubliniec, ul. ks. Szymały",PL,Lubliniec,50.67569299928655,18.682065000297897,,13.4613,,,2024-05-27T10:00:00+00:00,1
청라,KR, ,37.537745,126.63878999999999,3.0,22.0,15.6206,51.236263,2024-05-27T10:00:00+00:00,1
Hua Hin Weather Station Prachuap Khiri Khan Meteorological Station,TH,Prachuap Khiri Khan,12.577835,99.953663,12.3,29.0,5.646,14.349530000000001,2024-05-27T10:00:00+00:00,1
Kanjanapisek Park,TH,Sa Kaeo,13.691047,102.510442,7.5,25.0,7.5280000000000005,86.09718,2024-05-27T10:00:00+00:00,1
진천동,KR, ,35.81672600000001,128.528732,6.0,16.0,15.6206,48.028721,2024-05-27T10:00:00+00:00,1
삼산동,KR, ,35.544442,129.331878,9.0,16.0,22.2076,45.158815,2024-05-27T10:00:00+00:00,1
Water reservoir,TH,Nakhon Pathom,13.832076,100.057961,7.7,18.0,1.8820000000000001,4.22045,2024-05-27T10:00:00+00:00,1
Elderly Health Rehabilitation Center,TH,Nakhon Si Thammarat,8.426923,99.96146899999998,11.9,25.0,15.056000000000001,20.25816,2024-05-27T10:00:00+00:00,1
청학동,KR, ,35.090811,129.058362,7.0,21.0,25.0306,47.437858,2024-05-27T10:00:00+00:00,1
Kirkeveien,NO,Oslo,59.932309999424945,10.724550000116762,11.879019,17.790487,10.405525,,2024-05-27T10:00:00+00:00,1
Chom Nan Chaloem Phrakiat Public Park,TH,Phitsanulok,16.820832999999997,100.258056,6.3,16.0,3.7640000000000002,19.41407,2024-05-27T10:00:00+00:00,1
Samut Songkhram Health Office,TH,Samut Songkhram,13.428581,100.02466400000002,8.1,19.0,0.0,17.725890000000003,2024-05-27T10:00:00+00:00,1
"Zielona Góra,ul.Wyszyńskiego",PL,Zielona Góra,51.93624899957756,15.481077000256384,,17.3432,,,2024-05-27T10:00:00+00:00,1
SAN MARTIN DE PORRES,PE,Lima,-12.008889,-77.084472,24.21,32.74,18.82,10.213489,2024-05-27T10:00:00+00:00,1
Thonburi Power Sub-Station,TH,Bangkok,13.727622,100.486568,13.9,37.0,,0.84409,2024-05-27T10:00:00+00:00,1
"Bydgoszcz, ul. Warszawska",PL,Bydgoszcz,53.13408299928706,17.995707999780457,14.8,27.1,12.5,47.772999999999996,2024-05-27T10:00:00+00:00,1
영종,KR, ,37.494835,126.56391899999998,8.0,23.0,9.2218,43.808271,2024-05-27T10:00:00+00:00,1
Haukenes,NO,Grenland,59.20243,9.4871,,,2.987419,35.002,2024-05-27T10:00:00+00:00,1
Schancheholen,NO,Stavanger,58.951876999538094,5.72187500015485,6.765806,8.554111,18.17815,,2024-05-27T10:00:00+00:00,1
"Zielonka, Bory Tucholskie",PL,Zielonka,53.66211699958891,17.934016999839095,,,5.8,51.127,2024-05-27T10:00:00+00:00,1
"Rzeszów, ul. Słocińska",PL,Rzeszów,50.024855999224435,22.047937000160115,6.03438,18.7072,,,2024-05-27T10:00:00+00:00,1
St.Croix,NO,Fredrikstad,59.21027999972201,10.945350000411816,11.40057,14.423219,10.361008,,2024-05-27T10:00:00+00:00,1
"Khlong Toei District Office, Bangkok",TH,Bangkok,13.708488,100.583747,16.5,,,,2024-05-27T10:00:00+00:00,1
"Gliwice, ul. Mewy",PL,Gliwice,50.279481,18.655736,,23.3106,,,2024-05-27T10:00:00+00:00,1
정선읍,KR, ,37.3797566,128.66112569999999,11.0,27.0,9.0336,55.625531,2024-05-27T10:00:00+00:00,1
읍내동,KR, ,36.37277799999999,127.417222,8.0,29.0,15.8088,40.263093,2024-05-27T10:00:00+00:00,1
"Soi Sukhumwit 63 Roadside Wattana, Bangkok",TH,Bangkok,13.722096,100.584559,12.2,41.0,,,2024-05-27T10:00:00+00:00,1
"Field Crop Research Center, Rayong",TH,Rayong,12.73518333,101.13565,11.4,36.0,5.646,18.56998,2024-05-27T10:00:00+00:00,1
Chalermprakiet Hospital,LA,Nan,19.5759666,101.0815166,18.6,41.0,3.7640000000000002,3.37636,2024-05-27T10:00:00+00:00,1
"Tychy, ul. Tołstoja",PL,Tychy,50.09990299974864,18.990236000322565,,14.5184,7.91163,,2024-05-27T10:00:00+00:00,1
"Bang Khae District Office, Bangkok",TH,Bangkok,13.696314,100.409049,11.6,27.0,,,2024-05-27T10:00:00+00:00,1
National Housing Authority Klongchan,TH,Bangkok,13.779873,100.646009,9.6,1.0,,4.22045,2024-05-27T10:00:00+00:00,1
Yupparaj Wittayalai School,TH,Chiang Mai,18.7909333,98.99,5.7,26.0,0.0,,2024-05-27T10:00:00+00:00,1
"Połaniec, ul. Ruszczańska",PL,Połaniec,50.429013999199164,21.277367000344928,8.5,18.4,3.6,19.3887,2024-05-27T10:00:00+00:00,1
"Szczecinek, ul. Przemysłowa",PL,Szczecinek,53.698902,16.704556,,22.1968,31.2703,,2024-05-27T10:00:00+00:00,1
Bodindecha Sing Singhaseni School,TH,Bangkok,13.769634,100.614567,13.2,68.0,0.0,0.0,2024-05-27T10:00:00+00:00,1
Samut Sakhon Wittayalai School,TH,Samut Sakhon,13.5502631,100.2647676,9.6,29.0,143.03199999999998,16.8818,2024-05-27T10:00:00+00:00,1
Widuchowa,PL,Widuchowa,53.12232499932126,14.38224500032245,,,5.59526,45.0339,2024-05-27T10:00:00+00:00,1
Tustervatn,NO,Tustervatn,65.83089,13.90655,,,,43.516,2024-05-27T10:00:00+00:00,1
"Rolland, Åsane",NO,Bergen,60.462664999649085,5.332446999801299,5.150258,7.970781,4.63835,,2024-05-27T10:00:00+00:00,1
Manglerud,NO,Oslo,59.898639999632145,10.814900000178097,6.1,13.64,7.0385,,2024-05-27T10:00:00+00:00,1
Hydrogeological Group Water Resources Regional Office4 khonkaen,TH,Khon Kaen,16.44538333,102.83525,10.8,43.0,13.174,0.84409,2024-05-27T10:00:00+00:00,1
"Warszawa, al. Niepodległości",PL,Warszawa,52.219297999502565,21.004723999701287,11.7,23.8,44.1,,2024-05-27T10:00:00+00:00,1
"Gołuchów, Ujęcie Wody",PL,Gołuchów,50.621481999644814,20.614056999788748,,17.6,1.9,46.568999999999996,2024-05-27T10:00:00+00:00,1
White Elephant Park,TH,Yala,6.546205,101.283137,14.8,71.0,,7.596809999999999,2024-05-27T10:00:00+00:00,1
"Koszalin, ul. Chopina",PL,Koszalin,54.1941139995477,16.211671999572665,,,5.08608,47.31763,2024-05-27T10:00:00+00:00,1
SAN JUAN DE LURIGANCHO,PE,Lima,-11.981636,-76.999247,34.1,47.47,3.76,14.989799999999999,2024-05-27T10:00:00+00:00,1
"Warszawa, ul. Chrościckiego",PL,Warszawa,52.207741999618385,20.906072999577745,2.9,7.4,9.1,47.816,2024-05-27T10:00:00+00:00,1
"Lak Si District Office, Bangkok",TH,Bangkok,13.887395,100.579247,12.3,,,,2024-05-27T10:00:00+00:00,1
Bright,AU,Bright,-36.73228,146.9702,16.41,,,,2024-05-27T10:00:00+00:00,1
Ringsakervegen,NO,unknown,60.88592999971599,10.937850000240683,17.3,29.1,,,2024-05-27T10:00:00+00:00,1
臺中市 - 忠明,TW,臺中市,24.151958000000004,120.641092,0.0,18.0,19.761000000000003,18.147934999999997,2024-05-27T10:00:00+00:00,1
온천동,KR, ,35.2071463,129.076217,11.0,42.0,44.4152,32.835100999999995,2024-05-27T10:00:00+00:00,1
SANTA ANITA,PE,Lima,-12.043022,-76.971444,71.83,81.0,58.906600000000005,3.0387239999999998,2024-05-27T10:00:00+00:00,1
MB Titova,SI,MB Titova,46.559202,15.656191,,17.0,,,2024-05-27T10:00:00+00:00,1
"Kłodzko, ul. Szkolna",PL,Kłodzko,50.43349299958514,16.65365999960197,6.89557,20.1684,2.59342,53.32688,2024-05-27T10:00:00+00:00,1
"Granica, KPN",PL,Granica,52.285857999624604,20.45465299988227,,,1.6,42.957,2024-05-27T10:00:00+00:00,1
팔봉동,KR, ,35.961633,127.004233,5.0,20.0,4.705,55.625531,2024-05-27T10:00:00+00:00,1
SAN BORJA,PE,Lima,-12.108872,-77.007689,36.05,141.5,96.5466,2.2274,2024-05-27T10:00:00+00:00,1
정촌면,KR, ,35.12460166670001,128.09992247,6.0,18.0,17.502599999999997,38.237277,2024-05-27T10:00:00+00:00,1
Khai Surasinghanat,TH,Rayong,12.648576,101.32245,11.4,12.0,43.286,0.0,2024-05-27T10:00:00+00:00,1
계산,KR, ,37.546111,126.730278,9999.0,9999.0,18818118.0,8440055.91,2024-05-27T10:00:00+00:00,1
Municipality Office Tungsadao,TH,Chachoengsao,13.588500000000002,101.28633329999998,12.0,63.0,0.0,13.50544,2024-05-27T10:00:00+00:00,1
동대문구,KR, ,37.576169,127.02964199999998,11.0,24.0,15.432400000000001,47.100222,2024-05-27T10:00:00+00:00,1
Poznań ul. Szwajcarska,PL,Poznań,52.39087899929191,16.99805299966694,9.45289,15.0244,6.26664,44.63916,2024-05-27T10:00:00+00:00,1
철원(DMZ),KP, ,38.290859000000005,127.179801,16.0,20.0,7.9044,42.288909,2024-05-27T10:00:00+00:00,1
Health Promotion Hospital Banthasri,TH,Lampang,18.4267833,99.7576333,7.9,134.0,31.994000000000003,15.193619999999997,2024-05-27T10:00:00+00:00,1
"Phra Kanong District Office,  Bangkok",TH,Bangkok,13.691511,100.61457,13.8,29.0,,,2024-05-27T10:00:00+00:00,1
Trbovlje,SI,Trbovlje,46.157811,15.05875,,14.0,,,2024-05-27T10:00:00+00:00,1
"Konin, ul. Wyszyńskiego",PL,Konin,52.22564999926649,18.268927000184274,,15.4569,3.98655,30.016923999999996,2024-05-27T10:00:00+00:00,1
CAMPO DE MARTE,PE,Lima,-12.070544,-77.043214,38.3,51.69,40.33,7.343583,2024-05-27T10:00:00+00:00,1
"Katowice, ul. Plebiscytowa/A4",PL,Katowice,50.24679499975664,19.019468999654578,12.39,22.2586,40.8632,,2024-05-27T10:00:00+00:00,1
"Nisko, ul. Szklarniowa",PL,Nisko,50.52989199950578,22.112466999792797,7.68858,17.9822,7.69421,47.95102,2024-05-27T10:00:00+00:00,1
"Bydgoszcz, pl. Poznański",PL,Bydgoszcz,53.12176399938241,17.98790600038385,14.0,22.8,19.1,,2024-05-27T10:00:00+00:00,1
Traralgon,AU,Traralgon,-38.19428249999999,146.531464,15.67,35.42,47.050000000000004,0.6921537999999999,2024-05-27T10:00:00+00:00,1
중앙로,KR, ,37.8753695,127.7202223,6.0,12.0,9.0336,46.93140399999999,2024-05-27T10:00:00+00:00,1
홍성읍,KR, ,36.597702,126.65513299999999,9.0,12.0,11.1038,41.698046,2024-05-27T10:00:00+00:00,1
"Zdzieszowice, ul. Piastów",PL,Zdzieszowice,50.423532999749185,18.120739000199308,,17.3377,4.99346,,2024-05-27T10:00:00+00:00,1
"Oława, ul. Żołnierzy Armii Krajowej",PL,Oława,50.94207299928266,17.291333000027603,,12.316,6.71431,54.803929999999994,2024-05-27T10:00:00+00:00,1
Vågen,NO,Stavanger,58.97264899972706,5.726498000101514,12.490722,16.951,9.222296,,2024-05-27T10:00:00+00:00,1
MS Cankarjeva,SI,MS Cankarjeva,46.658094,16.164192,,12.0,,,2024-05-27T10:00:00+00:00,1
Josefa Vergara,MX,Querétaro,20.565863888889,-100.38918611111,6.5,,28.64404,31.298857199999997,2024-05-27T10:00:00+00:00,1
"Toruń, ul. Dziewulskiego",PL,Toruń,53.028646999667174,18.666103000406075,14.0,18.0,9.8,44.72,2024-05-27T10:00:00+00:00,1
"Ełk, ul. Piłsudskiego",PL,Ełk,53.82838899949866,22.34833799967691,5.42532,15.0372,5.18896,53.65067,2024-05-27T10:00:00+00:00,1
"Pila, ul. Kusocińskiego",PL,Piła,53.15440799938908,16.759572000420363,,18.5186,5.44568,,2024-05-27T10:00:00+00:00,1
고창읍,KR, ,35.438094,126.71279,9.0,18.0,7.5280000000000005,49.885719,2024-05-27T10:00:00+00:00,1
Nonsi Witthaya School,TH,Bangkok,13.70806667,100.5473333,7.2,25.0,50.814,4.22045,2024-05-27T10:00:00+00:00,1
Hat Yai Municipality,TH,Songkhla,7.020434,100.484088,16.8,41.0,11.292,18.56998,2024-05-27T10:00:00+00:00,1
"Legionowo, ul. Zegrzyńska",PL,Legionowo,52.407577999685984,20.9559280003548,6.73,13.34,4.1,50.138,2024-05-27T10:00:00+00:00,1
Kasertsart University,TH,Bangkok,13.839923,100.575632,15.6,,,,2024-05-27T10:00:00+00:00,1
"Bang Khun Thian District Office, Bangkok",TH,Bangkok,13.659908,100.435902,15.7,,,,2024-05-27T10:00:00+00:00,1
"Meteorological stations, Lampang",TH,Lampang,18.2783333,99.5064666,11.2,161.0,,15.193619999999997,2024-05-27T10:00:00+00:00,1
"Słupsk, ul. Kniaziewicza",PL,Słupsk,54.463610999518366,17.046721999690135,,11.0587,9.6329,13.312972,2024-05-27T10:00:00+00:00,1
"Łódź, ul. Czernika",PL,Łódź,51.75804999921038,19.529785999805934,5.5,22.0,6.3,45.708999999999996,2024-05-27T10:00:00+00:00,1
"Toruń, ul. Wały gen. Sikorskiego",PL,Toruń,53.012475,18.605681,,25.9,7.5,,2024-05-27T10:00:00+00:00,1
Point Cook,AU,Point Cook,-37.9263153,144.7567,9.59,,,0.2110225,2024-05-27T10:00:00+00:00,1
의정부동,KR, ,37.735582,127.040421,9.0,20.0,10.1628,43.386226,2024-05-27T10:00:00+00:00,1
운중동,KR, ,37.390588,127.077838,6.0,29.0,17.6908,48.872811,2024-05-27T10:00:00+00:00,1
"Piotrków Trybunalski, ul. Krakowskie Przedmieście",PL,Piotrków Trybunalski,51.404405999256426,19.696956000022325,,40.6,8.0,44.075,2024-05-27T10:00:00+00:00,1
Health Promotion Hospital Bankhaohin,TH,Chon buri,13.054551,101.098128,8.0,33.0,47.050000000000004,48.95722,2024-05-27T10:00:00+00:00,1
"Borówiec, ul. Drapałka",PL,Borówiec,52.27671999935527,17.074186999558645,,15.5999,2.45498,42.583932,2024-05-27T10:00:00+00:00,1
"Bang Khen District Office, Bangkok",TH,Bangkok,13.873603,100.595839,22.2,,,,2024-05-27T10:00:00+00:00,1
"Gdańsk, ul. Wyzwolenia",PL,Gdańsk,54.40083299944336,18.657496999847023,11.7226,36.3594,15.8134,,2024-05-27T10:00:00+00:00,1
용담동,KR, ,36.635997,127.50402800000002,3.0,20.0,15.997000000000002,46.002905000000005,2024-05-27T10:00:00+00:00,1
"Włocławek, ul. Okrzei",PL,Włocławek,52.658466999271674,19.05931399955884,10.7,19.6,24.5,,2024-05-27T10:00:00+00:00,1
"Warszawa, ul. Kondratowicza",PL,Warszawa,52.290863999390986,21.04245800001037,5.8,17.4,6.8,45.924,2024-05-27T10:00:00+00:00,1
"Kraków, ul. Bujaka",PL,Kraków,50.010574999999996,19.949189,20.1253,17.4538,8.26972,39.905677,2024-05-27T10:00:00+00:00,1
"Lębork, ul. Malczewskiego",PL,Lębork,54.546167,17.746194,-1.0,-1.0,9.88915,48.122589999999995,2024-05-27T10:00:00+00:00,1
강북구,KR, ,37.64793,127.011952,7.0,19.0,9.2218,50.6454,2024-05-27T10:00:00+00:00,1
"Gdynia, ul. Porębskiego",PL,Gdynia,54.56083599939829,18.49333100007671,13.5567,25.3899,13.503,38.557497999999995,2024-05-27T10:00:00+00:00,1
Meteorological Station Lopburi,TH,Lopburi,14.800032,100.62854800000001,12.2,26.0,24.465999999999998,19.41407,2024-05-27T10:00:00+00:00,1
"Gdańsk, ul. Leczkowa",PL,Gdańsk,54.38027899999999,18.620274,9.91449,22.0936,7.17694,43.76368,2024-05-27T10:00:00+00:00,1
"Municipality Office, Nan",TH,Nan,18.7888833,100.7763166,20.4,81.0,0.0,4.22045,2024-05-27T10:00:00+00:00,1
"Kościerzyna, ul. Targowa",PL,Kościerzyna,54.120693999572886,17.975861000083857,10.5358,22.1111,11.6874,15.191168999999999,2024-05-27T10:00:00+00:00,1
Maesai Health Office,MM,Chiang Rai,20.427325,99.883842,13.8,32.0,30.112000000000002,18.56998,2024-05-27T10:00:00+00:00,1
"Świecie, al. Jana Pawła II",PL,Świecie,53.40758,18.428751,15.6,32.7,9.4,,2024-05-27T10:00:00+00:00,1
Melbourne CBD,AU,Melbourne,-37.8073959,144.97,11.2,,,,2024-05-27T10:00:00+00:00,1
Liniewko Kościerskie,PL,Liniewko Kościerskie,54.10411099965439,18.182971999565655,,,12.2581,36.503646,2024-05-27T10:00:00+00:00,1
CE Ljubljanska,SI,CE Ljubljanska,46.235962,15.251062,,10.0,,,2024-05-27T10:00:00+00:00,1
관악구,KR, ,37.48824200000001,126.92708900000001,9.0,23.0,18.2554,47.859902999999996,2024-05-27T10:00:00+00:00,1
금성면,KR, ,34.965927,127.794191,4.0,15.0,12.0448,48.450765999999994,2024-05-27T10:00:00+00:00,1
"Łódź, ul. Gdańska",PL,Łódź,51.77537799947945,19.450992000323055,11.0,26.5,12.0,16.598,2024-05-27T10:00:00+00:00,1
Strzegom,PL,Strzegom,50.969633,16.348469,,28.2066,6.21931,48.8953,2024-05-27T10:00:00+00:00,1
농소동,KR, ,35.62088,129.35796000000002,9999.0,9999.0,18818118.0,8440055.91,2024-05-27T10:00:00+00:00,1
"Kraków, Aleja Krasińskiego",PL,Kraków,50.057677999600934,19.926188999725756,9.7498,30.9166,62.815,,2024-05-27T10:00:00+00:00,1
Melton,AU,Melton,-37.7064552,144.5669,0.87,,,11.81726,2024-05-27T10:00:00+00:00,1
두암동,KR, ,35.17430000000001,126.9325,6.0,20.0,13.7386,46.846995,2024-05-27T10:00:00+00:00,1
"Białystok, ul. 42 Pułku Piechoty",PL,Białystok,53.144121999669075,23.216321999706476,7.1,13.3,3.3,46.311,2024-05-27T10:00:00+00:00,1
"Warszawa, ul. Bajkowa",PL,Warszawa,52.18847399945003,21.176233000182215,5.8,25.6,,,2024-05-27T10:00:00+00:00,1
"Ostróda, ul. Piłsudskiego",PL,Ostróda,53.694586999282535,19.969041000449135,6.94321,24.1039,2.95192,49.124489999999994,2024-05-27T10:00:00+00:00,1
"Konstancin-Jeziorna, ul. Żeromskiego",PL,Konstancin-Jeziorna,52.082276999655804,21.124598000246092,6.6,15.8,,,2024-05-27T10:00:00+00:00,1
" Olsztyn, ul. Puszkina",PL,Olsztyn,53.78923299947286,20.4860750004239,7.19833,24.3453,8.18655,45.68879,2024-05-27T10:00:00+00:00,1
복정동,KR, ,37.4563598,127.1304652,4.0,26.0,13.174,48.95722,2024-05-27T10:00:00+00:00,1
성주동,KR, ,35.1993934,128.7108707,10.0,24.0,27.289,48.535175,2024-05-27T10:00:00+00:00,1
"Koszalin, ul. Armii Krajowej",PL,Koszalin,54.193985999236595,16.172543999893893,,12.4451,10.7486,,2024-05-27T10:00:00+00:00,1
형곡동,KR, ,36.114033,128.335603,3.0,25.0,7.9044,50.729808999999996,2024-05-27T10:00:00+00:00,1
"Suwałki, ul. Pułaskiego 26",PL,Suwałki,54.115897,22.938464,3.4,,,,2024-05-27T10:00:00+00:00,1
Grimmerhaugen,NO,Ålesund,62.472169999765086,6.1568199999475155,,21.354667,,,2024-05-27T10:00:00+00:00,1
서천읍,KR, ,36.076309,126.69838300000002,5.0,17.0,11.6684,28.023788,2024-05-27T10:00:00+00:00,1
Olav V gate,NO,unknown,67.27550099955323,14.419057000366632,12.379775,17.100908,10.261188,,2024-05-27T10:00:00+00:00,1
Brynbanen,NO,Oslo,59.91559999936541,10.825170000443576,10.245741,14.954186,3.829597,,2024-05-27T10:00:00+00:00,1
"Tarnów, ul. Ks. Romana Sitko",PL,Tarnów,50.0182529996681,20.992578000017275,4.9527,18.7139,21.2158,,2024-05-27T10:00:00+00:00,1
"Żyrardów, ul. Roosevelta",PL,Żyrardów,52.053810999533454,20.429891999985866,4.6,22.6,,,2024-05-27T10:00:00+00:00,1
대천2동,KR, ,36.353251,126.589768,6.0,14.0,5.8342,48.11313,2024-05-27T10:00:00+00:00,1
"Poznań, ul. Dąbrowskiego",PL,Poznań,52.42031899960569,16.877289000440918,1.027,1.027,11.566,1.0494408,2024-05-27T10:00:00+00:00,1
"Pułtusk, ul. Mickiewicza",PL,Pułtusk,52.70359099939243,21.072602999561543,8.7,18.0,,,2024-05-27T10:00:00+00:00,1
"Łuków, Bulwar 100-lecia Odzyskania Niepodległości ",PL,Łuków,51.930733999249235,22.372501999896745,7.2,12.5,,,2024-05-27T10:00:00+00:00,1
"Sopot, ul. Bitwy Pod Płowcami",PL,Sopot,54.43450999923355,18.578839999733177,13.7947,24.8879,18.8096,,2024-05-27T10:00:00+00:00,1
新北市 - 三重,TW,新北市,25.072611,121.49380599999999,20.0,34.0,88.6422,4.980131,2024-05-27T10:00:00+00:00,1
Moheia Vest,NO,Rana,66.31219099942862,14.149922999784136,12.94035,27.831231,11.825271,,2024-05-27T10:00:00+00:00,1
"Pleszew, Al. Mickiewicza",PL,Pleszew,51.884922,17.791106,,16.999,,,2024-05-27T10:00:00+00:00,1
Hjortnes,NO,Oslo,59.91125999975159,10.703980000346888,8.3,23.32,29.173111,,2024-05-27T10:00:00+00:00,1
고성(DMZ),KP, ,38.566511,128.280252,20.0,20.0,3.1994,44.652361000000006,2024-05-27T10:00:00+00:00,1
" Gołdap, ul. Jaćwieska",PL,Gołdap,54.305908,22.307681,,42.9036,19.2592,23.927092,2024-05-27T10:00:00+00:00,1
"Piastów, ul. Pułaskiego",PL,Piastów,52.19172799965393,20.83748900008589,7.0,18.4,8.1,46.913,2024-05-27T10:00:00+00:00,1
Moe,AU,Moe,-38.1864662,146.258331,16.27,24.06,,,2024-05-27T10:00:00+00:00,1
"Warszawa, ul. Wokalna",PL,Warszawa,52.160772,21.033819,5.5,12.1,5.2,47.171,2024-05-27T10:00:00+00:00,1
산업로,KR, ,35.536392,129.35595,4.0,14.0,33.123200000000004,36.717915,2024-05-27T10:00:00+00:00,1
Vahl skole,NO,Oslo,59.916943999591936,10.76600000017622,12.1,29.2,14.316834,,2024-05-27T10:00:00+00:00,1
"Grudziądz, ul. Piłsudskiego",PL,Grudziądz,53.49354999961776,18.76213900024597,,23.22,23.1,,2024-05-27T10:00:00+00:00,1
Zeppelinfjellet,NO,Svalbard,78.90668999979506,11.888989999583886,,,,16.512,2024-05-27T10:00:00+00:00,1
송정동,KR, ,35.589275362716755,129.36748762340486,8.0,20.0,20.8902,45.665269,2024-05-27T10:00:00+00:00,1
부흥동,KR, ,34.804279,126.43457,9999.0,9999.0,9.7864,56.976075,2024-05-27T10:00:00+00:00,1
"Elbląg, ul. Bażyńskiego",PL,Elbląg,54.16784699934997,19.410942000379386,5.9,21.3769,5.59632,46.29423,2024-05-27T10:00:00+00:00,1
Szczecin_Łączna,PL,Szczecin,53.470889,14.55625,,14.1928,,,2024-05-27T10:00:00+00:00,1
신방동,KR, ,36.78279,127.12066800000001,9.0,23.0,12.9858,46.256132,2024-05-27T10:00:00+00:00,1
중동,KR, ,34.937342,127.693427,5.0,20.0,11.1038,46.002905000000005,2024-05-27T10:00:00+00:00,1
"Szczecin, ul. Andrzejewskiego",PL,Szczecin,53.38097499966695,14.663347000313731,12.3846,22.8819,7.17159,36.297031,2024-05-27T10:00:00+00:00,1
"Kościan, ul. Maya",PL,Kościan,52.09043599971859,16.63638100033335,8.25577,21.3783,,,2024-05-27T10:00:00+00:00,1
범서읍,KR, ,35.56964,129.22602000000003,7.0,11.0,10.350999999999999,36.971142,2024-05-27T10:00:00+00:00,1
Limassol - Traffic Station,CY,Λεμεσός - Κυκλοφοριακός Σταθμός,34.6861111,33.03555559999995,11.01618,50.04017,10.55101,46.310182999999995,2024-05-27T10:00:00+00:00,1
Paralimni - Traffic Station,CY,Παραλίμνι - Κυκλοφοριακός Σταθμός,35.04569276191925,33.977734884655774,22.50172,37.28785,4.771469,47.768743,2024-05-27T10:00:00+00:00,1
Kalavasos - Industrial Station,CY,Καλαβασός - Βιομηχανικός Σταθμός ,34.77152999999999,33.29623,14.74,44.43,3.78774,48.356983,2024-05-27T10:00:00+00:00,1
북부순환도로,KR, ,35.55809,129.28116,2.0,23.0,28.7946,37.815231999999995,2024-05-27T10:00:00+00:00,1
일곡동,KR, ,35.218056,126.8925,4.0,11.0,13.7386,50.307764,2024-05-27T10:00:00+00:00,1
한솔동,KR, ,36.474172,127.252529,11.0,17.0,14.4914,38.237277,2024-05-27T10:00:00+00:00,1
석사동,KR, ,37.85697729999999,127.7500616,9999.0,9999.0,18818118.0,8440055.91,2024-05-27T10:00:00+00:00,1
포항항,KR, ,36.006021,129.41491,7.0,40.0,41.0276,32.497465,2024-05-27T10:00:00+00:00,1
시흥대로,KR, ,37.474899,126.898657,17.0,23.0,25.5952,41.529227999999996,2024-05-27T10:00:00+00:00,1
대산면,KR, ,35.371633,128.676483,8.0,22.0,9.41,48.197539,2024-05-27T10:00:00+00:00,1
옥천읍,KR, ,36.305084,127.570789,5.0,24.0,16.938,46.42495,2024-05-27T10:00:00+00:00,1
무거동,KR, ,35.550900000000006,129.26082700000003,6.0,22.0,20.3256,43.723862,2024-05-27T10:00:00+00:00,1
장량동,KR, ,36.070725,129.380278,9.0,30.0,19.5728,46.256132,2024-05-27T10:00:00+00:00,1
연희,KR, ,37.545556,126.675833,8.0,21.0,19.3846,46.846995,2024-05-27T10:00:00+00:00,1
대부동,KR, ,37.2437,126.5854,9.0,23.0,5.646,49.801309999999994,2024-05-27T10:00:00+00:00,1
행신동,KR, ,37.6251,126.84230000000001,10.0,26.0,11.4802,49.716901,2024-05-27T10:00:00+00:00,1
평택당진항,KR, ,36.968401,126.821682,13.0,28.0,19.5728,47.606676,2024-05-27T10:00:00+00:00,1
광양 중마,KR, ,34.9197777778,127.69447222220002,6.0,15.0,9.7864,43.386226,2024-05-27T10:00:00+00:00,1
울산항,KR, ,35.515708,129.38451800000004,22.0,32.0,30.676599999999997,37.562005,2024-05-27T10:00:00+00:00,1
덕충동,KR, ,34.753899999999994,127.7468,5.0,20.0,19.0082,47.606676,2024-05-27T10:00:00+00:00,1
기흥,KR, ,37.280224,127.11514,8.0,26.0,26.348,37.477596,2024-05-27T10:00:00+00:00,1
안강읍,KR, ,35.990790800000006,129.2269476,5.0,24.0,11.8566,46.678177,2024-05-27T10:00:00+00:00,1
봉동읍,KR, ,35.941567,127.16578300000002,6.0,17.0,18.0672,46.256132,2024-05-27T10:00:00+00:00,1
별내동,KR, ,37.65292399999999,127.11586,6.0,18.0,8.0926,43.639453,2024-05-27T10:00:00+00:00,1
대불,KR, ,34.757839999999995,126.452808,22.0,71.0,10.1628,52.671215999999994,2024-05-27T10:00:00+00:00,1
화순읍,KR, ,35.0652356,126.9857882,7.0,16.0,8.280800000000001,48.450765999999994,2024-05-27T10:00:00+00:00,1
삼호동,KR, ,35.414667,129.17208299999996,0.0,21.0,15.8088,44.145907,2024-05-27T10:00:00+00:00,1
우현동,KR, ,36.05249,129.360814,14.0,27.0,45.9208,37.984049999999996,2024-05-27T10:00:00+00:00,1
야음동,KR, ,35.528793,129.326001,3.0,19.0,23.148600000000002,35.029735,2024-05-27T10:00:00+00:00,1
덕산읍,KR, ,36.904796,127.544593,7.0,18.0,14.679599999999999,44.821179,2024-05-27T10:00:00+00:00,1
여천동(울산),KR, ,35.515703,129.35892,9999.0,9999.0,18818118.0,8440055.91,2024-05-27T10:00:00+00:00,1
보령항,KR, ,36.401526999999994,126.487455,15.0,28.0,26.724400000000003,44.652361000000006,2024-05-27T10:00:00+00:00,1
봉암동,KR, ,35.217800000000004,128.6023,13.0,19.0,32.3704,43.89268,2024-05-27T10:00:00+00:00,1
향남읍,KR, ,37.13235600000001,126.92018600000002,14.0,21.0,11.1038,45.918496,2024-05-27T10:00:00+00:00,1
장유동,KR, ,35.202363999999996,128.807221,6.0,17.0,14.679599999999999,42.626545,2024-05-27T10:00:00+00:00,1
합천읍,KR, ,35.56723,128.16517,4.0,16.0,12.7976,47.522267,2024-05-27T10:00:00+00:00,1
진미동,KR, ,36.10605,128.41869999999997,7.0,24.0,17.878999999999998,39.503412000000004,2024-05-27T10:00:00+00:00,1
부평,KR, ,37.4903861,126.7236421,13.0,21.0,22.772199999999998,44.905587999999995,2024-05-27T10:00:00+00:00,1
"Piaski, Krzyżówka",PL,Krzyżówka,52.50131799965464,17.773175000182,,,2.36987,46.174260000000004,2024-05-27T10:00:00+00:00,1
"Zakopane, ul. Sienkiewicza",PL,Zakopane,49.293564,19.960083,,19.8996,3.45328,40.41785,2024-05-27T10:00:00+00:00,1
관평동,KR, ,36.42516799999999,127.395931,10.0,15.0,10.5392,42.964181,2024-05-27T10:00:00+00:00,1
중구,KR, ,37.564639,126.975961,9.0,15.0,14.8678,43.470634999999994,2024-05-27T10:00:00+00:00,1
노은동,KR, ,36.3682,127.31849999999999,12.0,21.0,12.7976,46.002905000000005,2024-05-27T10:00:00+00:00,1
칠금동,KR, ,36.982086,127.91920600000002,11.0,27.0,27.1008,42.710954,2024-05-27T10:00:00+00:00,1
신흥동,KR, ,36.592906,127.292253,4.0,20.0,12.4212,18.992024999999998,2024-05-27T10:00:00+00:00,1
"Gajew, Ujęcie Wody",PL,Gajew,52.143257999677225,19.23321700039047,,20.8,6.7,49.922999999999995,2024-05-27T10:00:00+00:00,1
영천동,KR, ,37.125508,128.198426,16.0,22.0,9.7864,51.658308,2024-05-27T10:00:00+00:00,1
Czerniawa,PL,Czerniawa,50.91247499963422,15.312189999731805,,12.6931,2.06921,52.52536,2024-05-27T10:00:00+00:00,1
Alvim,NO,Sarpsborg,59.273775439347794,11.089190169693003,10.680417,15.616389,3.545061,,2024-05-27T10:00:00+00:00,1
성거읍,KR, ,36.883421,127.20737099999998,7.0,25.0,29.171,40.600729,2024-05-27T10:00:00+00:00,1
동탄,KR, ,37.196921,127.0723,6.0,21.0,13.5504,45.243224000000005,2024-05-27T10:00:00+00:00,1
인천 신항,KR, ,37.35343799999999,126.627168,6.0,26.0,8.8454,46.087314,2024-05-27T10:00:00+00:00,1
대신동,KR, ,35.114404,129.017251,12.0,20.0,28.0418,47.015813,2024-05-27T10:00:00+00:00,1
백석동,KR, ,36.828034,127.104606,6.0,12.0,16.938,54.106169,2024-05-27T10:00:00+00:00,1
오포1동,KR, ,37.36615,127.22856,9.0,34.0,14.4914,44.314724999999996,2024-05-27T10:00:00+00:00,1
운서,KR, ,37.49659,126.487769,12.0,25.0,10.727400000000001,50.729808999999996,2024-05-27T10:00:00+00:00,1
Morwell East,AU,Morwell,-38.229393,146.424454,12.81,19.85,,,2024-05-27T10:00:00+00:00,1
의령읍,KR, ,35.31574799999999,128.25375699999998,3.0,18.0,12.7976,35.789416,2024-05-27T10:00:00+00:00,1
둔산동,KR, ,36.354444,127.383056,5.0,19.0,18.4436,48.028721,2024-05-27T10:00:00+00:00,1
오송읍,KR, ,36.6313584,127.3294723,7.0,17.0,13.9268,47.015813,2024-05-27T10:00:00+00:00,1
함열읍,KR, ,36.07865,126.96658000000001,16.0,25.0,7.9044,52.249171,2024-05-27T10:00:00+00:00,1
덕포동,KR, ,35.173784000000005,128.986052,11.0,21.0,54.0134,37.815231999999995,2024-05-27T10:00:00+00:00,1
중앙대로(고잔동),KR, ,37.316703,126.82791999999999,7.0,26.0,43.8506,,2024-05-27T10:00:00+00:00,1
혁신동,KR, ,35.846501999999994,127.062725,8.0,25.0,10.1628,46.42495,2024-05-27T10:00:00+00:00,1
고잔,KR, ,37.404839,126.69715799999999,7.0,24.0,25.7834,42.457727,2024-05-27T10:00:00+00:00,1
진접읍,KR, ,37.72627,127.189881,7.0,16.0,10.5392,47.691085,2024-05-27T10:00:00+00:00,1
식사동,KR, ,37.685514000000005,126.813441,7.0,27.0,7.339799999999999,49.970128,2024-05-27T10:00:00+00:00,1
길상,KR, ,37.640887,126.49097200000001,10.0,24.0,7.9044,48.535175,2024-05-27T10:00:00+00:00,1
서초구,KR, ,37.504547,126.994611,5.0,20.0,9.2218,49.04162899999999,2024-05-27T10:00:00+00:00,1
정릉로,KR, ,37.603593,127.026007,11.0,22.0,55.330799999999996,33.510373,2024-05-27T10:00:00+00:00,1
영월읍,KR, ,37.1725568,128.4551652,6.0,28.0,12.6094,48.281948,2024-05-27T10:00:00+00:00,1
산남동,KR, ,36.61322619999999,127.4686138,6.0,18.0,15.6206,40.600729,2024-05-27T10:00:00+00:00,1
오남읍,KR, ,37.698671999999995,127.204729,9.0,26.0,11.6684,45.327633,2024-05-27T10:00:00+00:00,1
"""Pecs Boszorkany""",HU,Pécs,46.08027799941561,18.211121999872606,14.0,33.0,6.7,39.001,2024-05-27T10:00:00+00:00,1
내서읍,KR, ,35.2258303611,128.50325827000003,14.0,26.0,16.3734,43.977089,2024-05-27T10:00:00+00:00,1
도안면,KR, ,36.813261000000004,127.615808,6.0,13.0,9.7864,49.294856,2024-05-27T10:00:00+00:00,1
"""Nyiregyhaza""",HU,Nyíregyháza,47.96111099974752,21.70583899981334,5.0,9.0,6.1,47.601,2024-05-27T10:00:00+00:00,1
"""Miskolc Buza""",HU,Miskolc,48.1069439991729,20.790005999918233,14.0,26.0,34.6910744,16.34,2024-05-27T10:00:00+00:00,1
내포,KR, ,36.6529558,126.66770180000002,5.0,18.0,11.8566,52.164762,2024-05-27T10:00:00+00:00,1
고촌읍,KR, ,37.60672399999999,126.762831,16.0,24.0,7.5280000000000005,46.42495,2024-05-27T10:00:00+00:00,1
의정부1동,KR, ,37.746355,127.04765199999999,6.0,22.0,15.056000000000001,43.89268,2024-05-27T10:00:00+00:00,1
우천면,KR, ,37.459,128.063,4.0,21.0,12.232999999999999,53.85294199999999,2024-05-27T10:00:00+00:00,1
석포면,KR, ,37.04850720000001,129.065288,12.0,27.0,8.469,56.469621000000004,2024-05-27T10:00:00+00:00,1
설악면,KR, ,37.676245,127.494701,8.0,14.0,8.280800000000001,47.522267,2024-05-27T10:00:00+00:00,1
송악면,KR, ,36.731582,127.00890600000001,8.0,15.0,8.0926,52.586807,2024-05-27T10:00:00+00:00,1
운암동,KR, ,35.176106,126.85693100000002,6.0,36.0,42.345,40.009866,2024-05-27T10:00:00+00:00,1
천곡동,KR, ,37.524793499999994,129.1140452,1.0,17.0,6.587,54.61262299999999,2024-05-27T10:00:00+00:00,1
부곡동,KR, ,35.22974870000001,129.09266,8.0,21.0,32.7468,31.906602000000003,2024-05-27T10:00:00+00:00,1
군위읍,KR, ,36.234746,128.57628,6.0,27.0,9.5982,49.379265000000004,2024-05-27T10:00:00+00:00,1
화양읍,KR, ,35.64988,128.70615999999998,8.0,23.0,8.0926,43.555044,2024-05-27T10:00:00+00:00,1
천천동,KR, ,37.284067,126.97989200000002,7.0,28.0,27.289,38.237277,2024-05-27T10:00:00+00:00,1
송현,KR, ,37.480664,126.63581999999998,13.0,26.0,17.502599999999997,34.270054,2024-05-27T10:00:00+00:00,1
용암동,KR, ,36.60881799999999,127.50129300000002,5.0,9999.0,18818118.0,8440055.91,2024-05-27T10:00:00+00:00,1
증평읍,KR, ,36.767778,127.605,14.0,17.0,10.350999999999999,47.775494,2024-05-27T10:00:00+00:00,1
지산동,KR, ,35.83047199999999,128.63157,6.0,19.0,13.5504,48.028721,2024-05-27T10:00:00+00:00,1
부안읍,KR, ,35.724299,126.734415,8.0,14.0,9.9746,54.61262299999999,2024-05-27T10:00:00+00:00,1
서면,KR, ,36.15287,126.549494,6.0,19.0,14.4914,29.543150000000004,2024-05-27T10:00:00+00:00,1
상리,KR, ,38.380754200000005,128.4635415,9.0,22.0,3.9522,45.749677999999996,2024-05-27T10:00:00+00:00,1
"Olesno, ul. Słowackiego",PL,Olesno,50.876983,18.416878,,21.2909,7.62321,47.92221,2024-05-27T10:00:00+00:00,1
고색동,KR, ,37.252226,126.97630400000001,7.0,34.0,17.6908,42.879771999999996,2024-05-27T10:00:00+00:00,1
월평동,KR, ,36.351111,127.354167,9999.0,30.0,26.9126,29.965194999999998,2024-05-27T10:00:00+00:00,1
新北市 - 菜寮,TW,新北市,25.06895,121.481028,13.0,21.0,55.1426,19.498478999999996,2024-05-27T10:00:00+00:00,1
臺北市 - 中山,TW,臺北市,25.062361,121.526528,12.0,20.0,48.3674,10.466716,2024-05-27T10:00:00+00:00,1
청양읍,KR, ,36.455152,126.804931,9.0,22.0,7.1516,38.99695799999999,2024-05-27T10:00:00+00:00,1
桃園市 - 中壢,TW,桃園市,24.953278,121.22166700000001,7.0,27.0,53.8252,8.609718,2024-05-27T10:00:00+00:00,1
宜蘭縣 - 冬山,TW,宜蘭縣,24.632203,121.792928,8.0,14.0,8.0926,26.082381,2024-05-27T10:00:00+00:00,1
수창동,KR, ,35.874296,128.584136,6.0,19.0,18.631800000000002,44.567952,2024-05-27T10:00:00+00:00,1
담양읍,KR, ,35.311711,126.97291399999999,7.0,15.0,8.280800000000001,47.859902999999996,2024-05-27T10:00:00+00:00,1
소사본동,KR, ,37.4800328,126.7999056,6.0,21.0,14.8678,40.347502,2024-05-27T10:00:00+00:00,1
공항대로,KR, ,37.56282099999999,126.826071,8.0,33.0,42.7214,36.802324,2024-05-27T10:00:00+00:00,1
Morwell South,AU,Morwell,-38.2392921,146.3873,9.34,,31.994000000000003,4.22045,2024-05-27T10:00:00+00:00,1
예천군,KR, ,36.576821,128.472886,10.0,21.0,8.0926,56.80725700000001,2024-05-27T10:00:00+00:00,1
신암동,KR, ,35.889757,128.633064,5.0,22.0,12.232999999999999,47.691085,2024-05-27T10:00:00+00:00,1
죽항동,KR, ,35.409278,127.384754,1.0,21.0,7.9044,47.691085,2024-05-27T10:00:00+00:00,1
강진읍,KR, ,34.6446579,126.7711918,9999.0,9999.0,18818118.0,8440055.91,2024-05-27T10:00:00+00:00,1
빛가람동,KR, ,35.02174,126.79041299999999,8.0,26.0,12.9858,47.691085,2024-05-27T10:00:00+00:00,1
엄사면,KR, ,36.286987,127.23791900000002,11.0,30.0,9.2218,29.880786,2024-05-27T10:00:00+00:00,1
양덕동,KR, ,36.088097,129.398987,13.0,23.0,6.9634,51.151854,2024-05-27T10:00:00+00:00,1
Reykjavik Husdyragardurinn,IS,Reykjavík,64.13886099998248,-21.873410999712643,2.98178,6.38176,15.382,10.476821,2024-05-27T10:00:00+00:00,1
본오동,KR, ,37.28923700000001,126.86448799999998,9999.0,30.0,19.761000000000003,39.925457,2024-05-27T10:00:00+00:00,1
인천항,KR, ,37.463043,126.624209,11.0,27.0,47.614599999999996,33.679191,2024-05-27T10:00:00+00:00,1
광양 율촌,KR, ,34.8943055556,127.61225,10.0,23.0,9.41,44.399134,2024-05-27T10:00:00+00:00,1
Zagorje,SI,Zagorje,46.131416,15.000906,,14.0,,,2024-05-27T10:00:00+00:00,1
장림동,KR, ,35.08298,128.96676219999998,11.0,32.0,31.2412,49.63249199999999,2024-05-27T10:00:00+00:00,1
중방동,KR, ,35.825174,128.743217,8.0,21.0,12.4212,41.36041,2024-05-27T10:00:00+00:00,1
Mari - Industrial Station,CY,Μαρί - Βιομηχανικός Σταθμός,34.74015413889849,33.30027554245612,,,1.774951,44.665777,2024-05-27T10:00:00+00:00,1
사파동,KR, ,35.221729,128.69825,4.0,24.0,17.3144,43.386226,2024-05-27T10:00:00+00:00,1
노대동,KR, ,35.1000281,126.8965634,3.0,17.0,9.41,49.885719,2024-05-27T10:00:00+00:00,1
진량읍,KR, ,35.87573700000001,128.812259,11.0,25.0,15.2442,46.42495,2024-05-27T10:00:00+00:00,1
雲林縣 - 斗六,TW,雲林縣,23.711853,120.54499399999999,9.0,17.0,16.1852,20.426978,2024-05-27T10:00:00+00:00,1
와부읍,KR, ,37.580842,127.226766,7.0,16.0,10.1628,50.223355,2024-05-27T10:00:00+00:00,1
高雄市 - 美濃,TW,高雄市,22.883583,120.53054199999998,4.0,11.0,6.9634,18.147934999999997,2024-05-27T10:00:00+00:00,1
금암로(신장동),KR, ,37.1710811,127.052049,10.0,20.0,14.679599999999999,44.567952,2024-05-27T10:00:00+00:00,1
구월동,KR, ,37.449722,126.72416699999998,9.0,27.0,29.547399999999996,42.964181,2024-05-27T10:00:00+00:00,1
소하동,KR, ,37.452158,126.884909,10.0,26.0,7.716200000000001,50.560991,2024-05-27T10:00:00+00:00,1
Sveavägen,SE,Stockholm,59.34516113,18.05428175,0.0,19.6,13.5,,2024-05-27T10:00:00+00:00,1
고산면,KR, ,35.976403,127.20552299999999,9.0,19.0,11.6684,48.872811,2024-05-27T10:00:00+00:00,1
금산읍,KR, ,36.107179,127.490685,8.0,25.0,19.1964,47.26904,2024-05-27T10:00:00+00:00,1
新北市 - 土城,TW,新北市,24.982528,121.451861,12.0,19.0,25.0306,25.913563000000003,2024-05-27T10:00:00+00:00,1
이동읍,KR, ,37.141026399999994,127.1960051,7.0,20.0,12.0448,44.230316,2024-05-27T10:00:00+00:00,1
花蓮縣 - 花蓮,TW,花蓮縣,23.971306,121.599769,5.0,5.0,7.9044,18.907615999999997,2024-05-27T10:00:00+00:00,1
Ayia Marina Xyliatou - Background Station,CY,Αγία Μαρίνα Ξυλιάτου - Σταθμός Υποβάθρου,35.0380556,33.05777779999994,12.12338,37.69189,3.859711,53.086338,2024-05-27T10:00:00+00:00,1
장락동,KR, ,37.145137,128.22066399999997,8.0,23.0,14.8678,51.151854,2024-05-27T10:00:00+00:00,1
연일읍,KR, ,35.996198,129.35210299999997,16.0,29.0,14.115,46.846995,2024-05-27T10:00:00+00:00,1
Zygi - Industrial Station,CY,Ζύγι - Βιομηχανικός Σταθμός ,34.7294444,33.33749999999998,12.75464,52.50814,4.304013,48.426041,2024-05-27T10:00:00+00:00,1
영덕읍,KR, ,36.420285,129.3637254,7.0,27.0,5.8342,52.924443000000004,2024-05-27T10:00:00+00:00,1
송림,KR, ,37.473818,126.643199,4.0,10.0,25.5952,42.542136,2024-05-27T10:00:00+00:00,1
Hornsgatan,SE,Stockholm,59.31713213999999,18.04878744,11.0,29.4,20.4,17.403174999999997,2024-05-27T10:00:00+00:00,1
남동,KR, ,37.44116400000001,126.706817,11.0,21.0,47.614599999999996,39.165775999999994,2024-05-27T10:00:00+00:00,1
Nicosia - Traffic Station,CY,Λευκωσία - Κυκλοφοριακός Σταθμός,35.15192246950294,33.347919957077806,18.23805,37.89193,20.58748,42.2611224,2024-05-27T10:00:00+00:00,1
성건동,KR, ,35.850801,129.207344,8.0,27.0,20.1374,45.496451,2024-05-27T10:00:00+00:00,1
진천읍,KR, ,36.8550153,127.4413124,11.0,23.0,16.1852,46.340540999999995,2024-05-27T10:00:00+00:00,1
南投縣 - 南投,TW,南投縣,23.913,120.68530599999998,3.0,12.0,13.362200000000001,13.843076000000002,2024-05-27T10:00:00+00:00,1
Sverresgate,NO,Grenland,59.13815999953755,9.65219999968707,,23.21,8.885531,,2024-05-27T10:00:00+00:00,1
대왕판교로(백현동),KR, ,37.38257620000001,127.1027442,5.0,19.0,66.0582,20.25816,2024-05-27T10:00:00+00:00,1
新北市 - 永和,TW,新北市,25.017,121.516306,7.0,12.0,31.805799999999998,22.283976,2024-05-27T10:00:00+00:00,1
宜蘭縣 - 宜蘭,TW,宜蘭縣,24.747917,121.746394,1.0,6.0,6.0224,25.069473,2024-05-27T10:00:00+00:00,1
인제(DMZ),KR, ,38.389557,128.248144,15.0,20.0,6.9634,37.646414,2024-05-27T10:00:00+00:00,1
영주동,KR, ,36.82863,128.62621,22.0,37.0,13.5504,55.625531,2024-05-27T10:00:00+00:00,1
상봉동,KR, ,35.19589100000001,128.074596,6.0,17.0,7.1516,47.437858,2024-05-27T10:00:00+00:00,1
호매실,KR, ,37.26893999999999,126.93609,11.0,30.0,13.9268,37.224368999999996,2024-05-27T10:00:00+00:00,1
광활면,KR, ,35.8357126,126.7404835,8.0,20.0,12.6094,54.86585,2024-05-27T10:00:00+00:00,1
예산군,KR, ,36.687115,126.832093,6.0,17.0,7.716200000000001,44.73677,2024-05-27T10:00:00+00:00,1
상주시,KR, ,36.428917000000006,128.15775699999998,18.0,21.0,6.9634,57.566938,2024-05-27T10:00:00+00:00,1
단양읍,KR, ,36.987924,128.364813,12.0,29.0,9.7864,53.599715,2024-05-27T10:00:00+00:00,1
삼진로,KR, ,35.11497,128.48581,7.0,19.0,21.0784,38.574912999999995,2024-05-27T10:00:00+00:00,1
유가읍,KR, ,35.695336,128.459293,16.0,37.0,13.9268,47.859902999999996,2024-05-27T10:00:00+00:00,1
원곡동,KR, ,37.336667,126.794167,8.0,28.0,11.292,38.574912999999995,2024-05-27T10:00:00+00:00,1
평창읍,KR, ,37.3607189,128.38894129999997,11.0,21.0,11.292,53.684124,2024-05-27T10:00:00+00:00,1
臺中市 - 西屯,TW,臺中市,24.162196999999995,120.61691700000002,7.0,22.0,32.3704,14.180712,2024-05-27T10:00:00+00:00,1
논현,KR, ,37.404167,126.72611099999999,10.0,24.0,32.935,38.152868,2024-05-27T10:00:00+00:00,1
오선동,KR, ,35.20413,126.80719999999998,7.0,21.0,21.2666,47.437858,2024-05-27T10:00:00+00:00,1
마포구,KR, ,37.55561,126.905457,10.0,27.0,20.5138,48.028721,2024-05-27T10:00:00+00:00,1
삼일동,KR, ,34.82476400000001,127.73161500000002,6.0,19.0,13.9268,42.373318000000005,2024-05-27T10:00:00+00:00,1
효성,KR, ,37.52922,126.71511,5.0,19.0,25.2188,49.716901,2024-05-27T10:00:00+00:00,1
죽산면,KR, ,37.0746,127.4244,9999.0,9999.0,18818118.0,8440055.91,2024-05-27T10:00:00+00:00,1
석바위,KR, ,37.457778,126.690833,9.0,21.0,39.3338,40.009866,2024-05-27T10:00:00+00:00,1
산본동,KR, ,37.3612,126.9362,9.0,34.0,18.82,39.67223,2024-05-27T10:00:00+00:00,1
태안읍,KR, ,36.746709,126.301512,11.0,18.0,14.3032,50.898627,2024-05-27T10:00:00+00:00,1
화도읍,KR, ,37.657822,127.300702,10.0,18.0,10.5392,41.19159200000001,2024-05-27T10:00:00+00:00,1
곤지암,KR, ,37.350901,127.35236299999998,6.0,20.0,23.3368,40.685138,2024-05-27T10:00:00+00:00,1
新北市 - 新莊,TW,新北市,25.037972,121.4325,12.0,24.0,42.1568,27.517333999999998,2024-05-27T10:00:00+00:00,1
보덕동,KR, ,35.8357805,129.2869852,4.0,13.0,13.5504,41.782455000000006,2024-05-27T10:00:00+00:00,1
연천,KR, ,38.09640000000001,127.07629999999999,6.0,19.0,8.8454,47.944312000000004,2024-05-27T10:00:00+00:00,1
대흥동1,KR, ,36.323889,127.418333,17.0,27.0,40.462999999999994,31.23133,2024-05-27T10:00:00+00:00,1
신촌로,KR, ,37.554936,126.937619,13.0,25.0,44.227,31.653374999999997,2024-05-27T10:00:00+00:00,1
성동면,KR, ,36.215998000000006,127.04326300000001,5.0,11.0,7.1516,15.024802000000001,2024-05-27T10:00:00+00:00,1
모종동,KR, ,36.782917,127.0145,4.0,21.0,12.0448,47.606676,2024-05-27T10:00:00+00:00,1
彰化縣 - 彰化,TW,彰化縣,24.066,120.541519,6.0,19.0,15.432400000000001,22.706021,2024-05-27T10:00:00+00:00,1
Chulalongkorn Hospital,TH,Bangkok,13.729852,100.536501,15.5,41.0,88.454,21.10225,2024-05-27T10:00:00+00:00,1
광진구,KR, ,37.544639,127.09570600000002,11.0,19.0,20.8902,52.080352999999995,2024-05-27T10:00:00+00:00,1
Larnaca - Traffic Station,CY,Λάρνακα - Κυκλοφοριακός Σταθμός,34.9166667,33.627500000000055,19.94199,44.06161,40.8995,35.7908221,2024-05-27T10:00:00+00:00,1
원평동,KR, ,36.130742,128.32579,9999.0,25.0,16.3734,51.489489999999996,2024-05-27T10:00:00+00:00,1
屏東縣 - 潮州,TW,屏東縣,22.523108000000004,120.561175,8.0,14.0,4.3286,18.485571,2024-05-27T10:00:00+00:00,1
호암동,KR, ,36.964566999999995,127.926158,10.0,20.0,12.7976,49.210446999999995,2024-05-27T10:00:00+00:00,1
약사동,KR, ,35.573311999999994,129.335655,6.0,17.0,19.1964,42.288909,2024-05-27T10:00:00+00:00,1
臺南市 - 新營,TW,臺南市,23.305633,120.31725000000002,5.0,17.0,12.9858,12.070487,2024-05-27T10:00:00+00:00,1
광복동,KR, ,35.099849,129.030344,11.0,27.0,44.7916,34.438872,2024-05-27T10:00:00+00:00,1
송도동,KR, ,36.0300245,129.3748446,13.0,42.0,22.0194,43.470634999999994,2024-05-27T10:00:00+00:00,1
충혼탑,KR, ,35.832255,128.583743,3.0,23.0,34.4406,32.497465,2024-05-27T10:00:00+00:00,1
연향동,KR, ,34.947102,127.51857500000001,6.0,21.0,9.2218,48.197539,2024-05-27T10:00:00+00:00,1
MS Rakičan,SI,MS Rakičan,46.652419,16.19628,,12.0,,,2024-05-27T10:00:00+00:00,1
미사,KR, ,37.567014,127.18602299999999,9.0,21.0,23.7132,44.483543,2024-05-27T10:00:00+00:00,1
별양동,KR, ,37.423889,126.994512,7.0,29.0,13.9268,44.314724999999996,2024-05-27T10:00:00+00:00,1
嘉義縣 - 新港,TW,嘉義縣,23.554839,120.34553099999998,10.0,17.0,9.41,19.920524,2024-05-27T10:00:00+00:00,1
新北市 - 新店,TW,新北市,24.977222,121.537778,9.0,15.0,16.3734,28.277015000000002,2024-05-27T10:00:00+00:00,1
향촌동,KR, ,34.93370386110001,128.09344675,5.0,16.0,12.6094,46.93140399999999,2024-05-27T10:00:00+00:00,1
양천구,KR, ,37.52328599999999,126.85868900000001,9.0,21.0,21.0784,45.918496,2024-05-27T10:00:00+00:00,1
彰化縣 - 線西,TW,彰化縣,24.131672,120.469061,8.0,19.0,9.5982,21.186659000000002,2024-05-27T10:00:00+00:00,1
북부동,KR, ,35.345555999999995,129.04,7.0,19.0,23.7132,42.288909,2024-05-27T10:00:00+00:00,1
단성면,KR, ,36.93885,128.32028,10.0,18.0,8.6572,58.495436999999995,2024-05-27T10:00:00+00:00,1
시지동,KR, ,35.837626,128.697558,7.0,25.0,19.0082,42.879771999999996,2024-05-27T10:00:00+00:00,1
"Zamość, ul. Hrubieszowska",PL,Zamość,50.71662799922771,23.290247000093718,10.7,19.5,6.4,,2024-05-27T10:00:00+00:00,1
제철동,KR, ,35.98998699999999,129.397592,6.0,27.0,19.5728,43.386226,2024-05-27T10:00:00+00:00,1
사천읍,KR, ,35.082551,128.091236,4.0,14.0,17.1262,45.834087000000004,2024-05-27T10:00:00+00:00,1
동상동,KR, ,35.236667000000004,128.883333,8.0,25.0,19.5728,45.665269,2024-05-27T10:00:00+00:00,1
순천만,KR, ,34.88597099999999,127.50902999999998,5.0,12.0,2.2584,47.015813,2024-05-27T10:00:00+00:00,1
삼기면,KR, ,36.0202555,126.98383979999998,13.0,32.0,7.9044,49.885719,2024-05-27T10:00:00+00:00,1
신대,KR, ,34.9363617,127.5485334,8.0,17.0,14.3032,47.944312000000004,2024-05-27T10:00:00+00:00,1
운암면,KR, ,35.610533,127.18621699999998,10.0,19.0,6.7752,46.509359,2024-05-27T10:00:00+00:00,1
갈말읍,KR, ,38.1466058,127.3124628,13.0,25.0,8.8454,44.399134,2024-05-27T10:00:00+00:00,1
오산동,KR, ,37.1591,127.07709999999999,7.0,29.0,15.8088,49.885719,2024-05-27T10:00:00+00:00,1
사우동,KR, ,37.619335,126.71674800000001,14.0,27.0,7.9044,48.450765999999994,2024-05-27T10:00:00+00:00,1
하동항,KR, ,34.5643,127.4918,13.0,37.0,6.9634,50.138946,2024-05-27T10:00:00+00:00,1
高雄市 - 仁武,TW,高雄市,22.689055999999997,120.332631,5.0,7.0,20.3256,14.602756999999999,2024-05-27T10:00:00+00:00,1
단대동,KR, ,37.449479,127.155512,10.0,25.0,11.292,42.288909,2024-05-27T10:00:00+00:00,1
Reykjavik Grensas,IS,Reykjavík,64.13010000003462,-21.874650000169947,6.0,8.0,-1.0,,2024-05-27T10:00:00+00:00,1
중부대로(구갈동),KR, ,37.275324,127.113744,10.0,23.0,40.6512,,2024-05-27T10:00:00+00:00,1
가야읍,KR, ,35.2720132,128.408105,4.0,23.0,13.7386,47.522267,2024-05-27T10:00:00+00:00,1
호계3동,KR, ,37.36772200000001,126.95898899999999,4.0,20.0,28.0418,40.769546999999996,2024-05-27T10:00:00+00:00,1
검단,KR, ,37.60204099999999,126.661444,9.0,18.0,15.997000000000002,39.925457,2024-05-27T10:00:00+00:00,1
요촌동,KR, ,35.80491,126.891416,8.0,18.0,16.561600000000002,52.417989000000006,2024-05-27T10:00:00+00:00,1
雲林縣 - 崙背,TW,雲林縣,23.757547,120.348742,8.0,16.0,4.3286,16.966209,2024-05-27T10:00:00+00:00,1
연무읍,KR, ,36.125022,127.096762,4.0,13.0,9.7864,30.893694,2024-05-27T10:00:00+00:00,1
김량장동,KR, ,37.2345,127.20140000000002,8.0,20.0,18.0672,44.061498,2024-05-27T10:00:00+00:00,1
수내동,KR, ,37.382662,127.119103,7.0,19.0,26.348,37.730823,2024-05-27T10:00:00+00:00,1
무주읍,KR, ,36.008716,127.662077,11.0,19.0,8.0926,60.014799,2024-05-27T10:00:00+00:00,1
南投縣 - 埔里,TW,南投縣,23.968842,120.96790299999999,3.0,11.0,17.502599999999997,9.200581,2024-05-27T10:00:00+00:00,1
음성읍,KR, ,36.928577,127.6886158,6.0,14.0,11.292,48.95722,2024-05-27T10:00:00+00:00,1
新北市 - 板橋,TW,新北市,25.012972,121.458667,11.0,18.0,36.8872,24.731837,2024-05-27T10:00:00+00:00,1
臺北市 - 松山,TW,臺北市,25.05,121.57861100000001,11.0,15.0,29.359199999999998,23.381293,2024-05-27T10:00:00+00:00,1
이현동,KR, ,35.869555999999996,128.54532300000002,5.0,20.0,18.2554,46.087314,2024-05-27T10:00:00+00:00,1
공도읍,KR, ,37.0010225,127.17249249999999,8.0,16.0,13.174,44.399134,2024-05-27T10:00:00+00:00,1
Ormidia - Industrial Station,CY,Ορμήδια - Βιομηχανικός Σταθμός ,34.9923,33.779,17.46,84.65,5.98769,52.783489,2024-05-27T10:00:00+00:00,1
월영동,KR, ,35.183108,128.560665,11.0,18.0,28.9828,45.749677999999996,2024-05-27T10:00:00+00:00,1
신흥,KR, ,37.468333,126.635,8.0,27.0,24.8424,43.723862,2024-05-27T10:00:00+00:00,1
화명동,KR, ,35.233361,129.007694,10.0,28.0,26.348,37.055551,2024-05-27T10:00:00+00:00,1
봉명동,KR, ,36.636989,127.46175900000001,10.0,19.0,18.82,50.223355,2024-05-27T10:00:00+00:00,1
운정,KR, ,37.723148,126.756434,10.0,25.0,11.8566,45.665269,2024-05-27T10:00:00+00:00,1
高雄市 - 橋頭,TW,高雄市,22.757506000000003,120.30568900000002,2.0,7.0,8.0926,14.433939,2024-05-27T10:00:00+00:00,1
가덕면,KR, ,36.550344,127.55033300000001,4.0,13.0,12.232999999999999,47.015813,2024-05-27T10:00:00+00:00,1
봉강면,KR, ,35.0113888889,127.58111111109999,5.0,12.0,6.2106,47.606676,2024-05-27T10:00:00+00:00,1
대가야읍,KR, ,35.7268791,128.2823425,8.0,23.0,11.292,43.132999,2024-05-27T10:00:00+00:00,1
CE bolnica,SI,CE bolnica,46.234818,15.267305,,13.0,,,2024-05-27T10:00:00+00:00,1
강서구,KR, ,37.544656,126.83509400000001,11.0,21.0,16.938,47.015813,2024-05-27T10:00:00+00:00,1
서신동,KR, ,35.833725,127.122751,7.0,26.0,35.3816,,2024-05-27T10:00:00+00:00,1
彰化縣 - 二林,TW,彰化縣,23.925175,120.409653,6.0,20.0,4.3286,18.485571,2024-05-27T10:00:00+00:00,1
반송로,KR, ,35.2341412,128.6646236,6.0,26.0,24.0896,46.340540999999995,2024-05-27T10:00:00+00:00,1
화천읍,KR, ,38.106317499999996,127.7080039,10.0,24.0,6.3988,45.327633,2024-05-27T10:00:00+00:00,1
전곡,KR, ,38.013429,127.034161,8.0,19.0,8.0926,43.217408,2024-05-27T10:00:00+00:00,1
인제읍,KR, ,38.06014720000001,128.1665652,7.0,15.0,4.3286,42.2045,2024-05-27T10:00:00+00:00,1
교문동,KR, ,37.594755,127.130141,5.0,16.0,5.646,37.899641,2024-05-27T10:00:00+00:00,1
경화동,KR, ,35.154971999999994,128.689578,9.0,18.0,12.7976,44.399134,2024-05-27T10:00:00+00:00,1
Szombathely,HU,Szombathely,47.238944,16.620351,,20.0,2.6,40.979,2024-05-27T10:00:00+00:00,1
臺中市 - 沙鹿,TW,臺中市,24.225628,120.56879400000001,8.0,17.0,19.761000000000003,24.140974,2024-05-27T10:00:00+00:00,1
경춘로,KR, ,37.609158,127.163109,9.0,27.0,29.547399999999996,38.743731000000004,2024-05-27T10:00:00+00:00,1
서대문구,KR, ,37.593749,126.94953399999999,9.0,24.0,16.7498,51.151854,2024-05-27T10:00:00+00:00,1
臺東縣 - 關山,TW,臺東縣,23.045083,121.16193299999999,6.0,15.0,4.705,16.037709999999997,2024-05-27T10:00:00+00:00,1
비응도동,KR, ,35.94904,126.58341,9.0,21.0,7.339799999999999,55.709939999999996,2024-05-27T10:00:00+00:00,1
"Goczałkowice Zdrój, ul. Parkowa",PL,Goczałkowice-Zdrój,49.93784999938854,18.975594000180585,6.81566,16.1765,4.03836,39.749458000000004,2024-05-27T10:00:00+00:00,1
금호동,KR, ,38.206871799999995,128.5881299,14.0,21.0,7.1516,36.717915,2024-05-27T10:00:00+00:00,1
대저동,KR, ,35.20958000000001,128.97136709999998,8.0,19.0,12.9858,43.04859,2024-05-27T10:00:00+00:00,1
National Housing Authority Dindaeng,TH,Bangkok,13.762516670000002,100.5502,23.0,60.0,0.0,0.0,2024-05-27T10:00:00+00:00,1
Prabadang Rehabiltation Center,TH,Samut Prakan,13.664087,100.543436,13.5,39.0,1.8820000000000001,12.66135,2024-05-27T10:00:00+00:00,1
둔포면,KR, ,36.914275,127.05959699999998,13.0,31.0,15.2442,46.762586,2024-05-27T10:00:00+00:00,1
화랑로,KR, ,37.617315,127.07511999999998,9.0,24.0,44.4152,38.40609499999999,2024-05-27T10:00:00+00:00,1
"Augustów, Uzdrowisko",PL,Augustów,53.85254999929405,22.984686000329827,11.0,18.3,3.0,46.096000000000004,2024-05-27T10:00:00+00:00,1
"Inowrocław, ul. Solankowa",PL,Inowrocław,52.793122,18.241044,,22.67976,6.3,,2024-05-27T10:00:00+00:00,1
"Pabianice, ul. Konstantynowska",PL,Pabianice,51.667980999617676,19.36868300003293,,28.5,4.8,45.795,2024-05-27T10:00:00+00:00,1
"Khlong Sam Wa District Office, Bangkok",TH,Bangkok,13.859911,100.704002,16.8,39.0,,,2024-05-27T10:00:00+00:00,1
창전동,KR, ,37.2837,127.44100000000002,6.0,24.0,17.1262,44.989996999999995,2024-05-27T10:00:00+00:00,1
신사우동,KR, ,37.905689,127.72600999999999,9999.0,9999.0,18818118.0,8440055.91,2024-05-27T10:00:00+00:00,1
"City Hall, Chiangmai",TH,Chiang Mai,18.840732,98.96978,11.9,53.0,0.0,0.0,2024-05-27T10:00:00+00:00,1
강남구,KR, ,37.5175623,127.0472893,13.0,18.0,19.1964,47.859902999999996,2024-05-27T10:00:00+00:00,1
강동구,KR, ,37.545089,127.13680599999999,2.0,16.0,14.115,53.262079,2024-05-27T10:00:00+00:00,1
상대원동,KR, ,37.433169,127.164372,3.0,21.0,22.3958,43.470634999999994,2024-05-27T10:00:00+00:00,1
"Jarosław, ul. Pruchnicka",PL,Jarosław,50.01208299951669,22.674772000057697,6.67954,17.2294,,,2024-05-27T10:00:00+00:00,1
마산항,KR, ,35.191823,128.591172,11.0,26.0,16.1852,39.67223,2024-05-27T10:00:00+00:00,1
보성읍,KR, ,34.76479,127.07806800000002,3.0,17.0,6.2106,36.802324,2024-05-27T10:00:00+00:00,1
율곡동,KR, ,36.1214646,128.183796,9.0,40.0,18.4436,51.236263,2024-05-27T10:00:00+00:00,1
부산신항,KR, ,35.074896,128.834169,6.0,20.0,51.9432,36.295869999999994,2024-05-27T10:00:00+00:00,1
"Bang Kapi District Office, Bangkok",TH,Bangkok,13.766478,100.647785,11.7,,,,2024-05-27T10:00:00+00:00,1
Mahaisawan Intersection,TH,Bangkok,13.70515,100.48465,8.7,,,,2024-05-27T10:00:00+00:00,1
"Phayao Provincial, Phayao",TH,Phayao,19.200226,99.893048,9.7,176.0,31.994000000000003,42.2045,2024-05-27T10:00:00+00:00,1
新北市 - 淡水,TW,新北市,25.1645,121.44923900000002,5.0,19.0,23.3368,21.693113,2024-05-27T10:00:00+00:00,1
고덕면(충남),KR, ,36.759735,126.732312,9999.0,9999.0,18818118.0,8440055.91,2024-05-27T10:00:00+00:00,1
Leiret,NO,Elverum,60.88364254956455,11.559300630377594,11.857739,19.676489,13.16305,,2024-05-27T10:00:00+00:00,1
Pécs Nevelési Központ,HU,Pécs Nevelési Központ,46.040885,18.220884,7.0,20.0,6.4,35.69,2024-05-27T10:00:00+00:00,1
Le Thai Community Park,TH,Sukhothai,17.006058999999997,99.81927,5.7,16.0,0.0,19.41407,2024-05-27T10:00:00+00:00,1
동작구,KR, ,37.480989,126.971547,9999.0,9999.0,18818118.0,8440055.91,2024-05-27T10:00:00+00:00,1
북평면,KR, ,37.43005,128.664717,15.0,26.0,7.9044,52.924443000000004,2024-05-27T10:00:00+00:00,1
배곧동,KR, ,37.37382300000001,126.73289,14.0,25.0,13.362200000000001,43.470634999999994,2024-05-27T10:00:00+00:00,1
인천 북항,KR, ,37.496332,126.643072,8.0,20.0,20.1374,29.965194999999998,2024-05-27T10:00:00+00:00,1
"Jelenia Góra, ul. Ogińskiego",PL,58-506 Jelenia Góra,50.91343299920691,15.765607999942864,7.22483,14.8423,1.98051,56.62584,2024-05-27T10:00:00+00:00,1
雲林縣 - 麥寮,TW,雲林縣,23.753506,120.25182500000001,6.0,16.0,7.5280000000000005,14.180712,2024-05-27T10:00:00+00:00,1
金門縣 - 金門,CN,金門縣,24.432132999999997,118.312256,7.0,8.0,12.0448,18.401162,2024-05-27T10:00:00+00:00,1
高雄市 - 大寮,TW,高雄市,22.564136109999996,120.42531099999998,7.0,14.0,11.1038,14.349530000000001,2024-05-27T10:00:00+00:00,1
부곡3동,KR, ,37.32004799999999,126.948907,6.0,25.0,27.1008,43.04859,2024-05-27T10:00:00+00:00,1
"Łódź, al. Jana Pawła II",PL,Łódź,51.75461299959635,19.43492499995093,,25.5,17.2,,2024-05-27T10:00:00+00:00,1
"City Hall, Samut Prakan",TH,Samut Prakan,13.599149,100.597345,22.2,38.0,3.7640000000000002,0.0,2024-05-27T10:00:00+00:00,1
LJ Vič,SI,LJ Vič,46.037791,14.494001,,13.0,,,2024-05-27T10:00:00+00:00,1
"Kędzierzyn-Koźle, ul. Śmiałego",PL,Kędzierzyn-Koźle,50.34960799943508,18.23657499988014,9.55082,20.4628,9.77882,44.49984,2024-05-27T10:00:00+00:00,1
살미면,KR, ,36.90523100000001,127.964141,10.0,24.0,12.9858,41.19159200000001,2024-05-27T10:00:00+00:00,1
Phetbura garden,TH,Phetchabun,16.418417,101.15655600000001,9.5,21.0,13.174,25.3227,2024-05-27T10:00:00+00:00,1
"Diabla Góra, Puszcza Borecka",PL,Diabla Góra,54.124818999577776,22.038056000057065,,,1.20463,46.57975,2024-05-27T10:00:00+00:00,1
高雄市 - 楠梓,TW,高雄市,22.733667,120.328289,5.0,13.0,22.2076,9.28499,2024-05-27T10:00:00+00:00,1
Buriram City Hall,TH,Buriram,14.945452000000001,103.10589600000002,9.3,21.0,1.8820000000000001,33.7636,2024-05-27T10:00:00+00:00,1
"Kalisz, ul. Wyszyńskiego",PL,Kalisz,51.747949999382705,18.049063000397823,11.2195,15.0368,7.53868,49.43495,2024-05-27T10:00:00+00:00,1
"Nong Thin Public Park, Nong Khai",TH,Nong Khai,17.877479999999995,102.728925,21.5,55.0,3.7640000000000002,20.25816,2024-05-27T10:00:00+00:00,1
臺北市 - 陽明,TW,臺北市,25.182722,121.529583,2.0,10.0,7.1516,23.718929,2024-05-27T10:00:00+00:00,1
당리동,KR, ,35.1055484,128.972983,15.0,28.0,45.7326,32.328647000000004,2024-05-27T10:00:00+00:00,1
강구면,KR, ,36.363249,129.389769,4.0,25.0,7.716200000000001,51.405081,2024-05-27T10:00:00+00:00,1
소이면,KR, ,36.923449,127.75545,8.0,20.0,11.292,47.944312000000004,2024-05-27T10:00:00+00:00,1
"Chaloem Phrakiat Rama 9 Park Min buri, Bangkok",TH,Bangkok,13.813578,100.73208,13.9,48.0,,,2024-05-27T10:00:00+00:00,1
삼남읍,KR, ,35.558304,129.11394199999998,4.0,23.0,9.41,43.301817,2024-05-27T10:00:00+00:00,1
Kannik,NO,Stavanger,58.964219999431805,5.727859999684153,6.470401,8.021053,20.007035,,2024-05-27T10:00:00+00:00,1
E6 Alna senter,NO,Oslo,59.925559999513645,10.850367000358071,13.610143,18.318825,16.395638,,2024-05-27T10:00:00+00:00,1
桃園市 - 平鎮,TW,桃園市,24.952786,121.203986,2.0,17.0,22.0194,19.667297,2024-05-27T10:00:00+00:00,1
Mildura,AU,Mildura,-34.19561,142.1616,32.98,76.33,,,2024-05-27T10:00:00+00:00,1
구성동,KR, ,36.372411,127.373938,13.0,18.0,9.9746,45.918496,2024-05-27T10:00:00+00:00,1
"Dębica, ul.Grottgera",PL,Dębica,50.054786,21.416256,6.11897,19.3868,,,2024-05-27T10:00:00+00:00,1
Porepunkah,AU,Porepunkah,-36.70419,146.9169,10.81,19.45,,,2024-05-27T10:00:00+00:00,1
Mueang Na Subdistrict Municipality Office,TH,Chiang Mai,19.593889,98.961667,5.8,17.0,,,2024-05-27T10:00:00+00:00,1
"Katowice, ul. Kossutha",PL,Katowice,50.26461099951472,18.97502799956784,5.23391,9.64341,12.3834,45.26438,2024-05-27T10:00:00+00:00,1
屏東縣 - 屏東,TW,屏東縣,22.673081,120.48803299999999,7.0,19.0,14.115,15.700073999999997,2024-05-27T10:00:00+00:00,1
"Starachowice, ul. Złota",PL,Starachowice,51.050611,21.084175,8.3,16.7,,,2024-05-27T10:00:00+00:00,1
계화면,KR, ,35.761674,126.69810299999999,10.0,22.0,12.0448,53.684124,2024-05-27T10:00:00+00:00,1
Li District Office,TH,Lamphun,17.802222,98.949722,5.5,25.0,,,2024-05-27T10:00:00+00:00,1
한강대로,KR, ,37.549389,126.97151899999999,9999.0,9999.0,18818118.0,8440055.91,2024-05-27T10:00:00+00:00,1
南投縣 - 竹山,TW,南投縣,23.756389,120.677306,8.0,18.0,16.3734,15.531255999999999,2024-05-27T10:00:00+00:00,1
"child development centers, Betong",MY,Yala,5.763873,101.067903,12.2,25.0,,,2024-05-27T10:00:00+00:00,1
"Kungsgatan, Uppsala",SE,Uppsala,59.853185,17.653329,11.2,31.7,11.3,,2024-05-27T10:00:00+00:00,1
臺北市 - 古亭,TW,臺北市,25.020608,121.529556,11.0,17.0,51.002199999999995,17.135027,2024-05-27T10:00:00+00:00,1
"Kielce, ul. Targowa",PL,Kielce,50.8789979993478,20.633691999773244,-1.0,-1.0,-1.0,45.58,2024-05-27T10:00:00+00:00,1
안중,KR, ,36.98590000000001,126.93139999999998,8.0,23.0,10.1628,52.164762,2024-05-27T10:00:00+00:00,1
NG Grčna,IT,NG Grčna,45.95589,13.65702,,10.0,,,2024-05-27T10:00:00+00:00,1
"Bang Sue District Office, Bangkok",TH,Bangkok,13.809596,100.537883,13.3,,,,2024-05-27T10:00:00+00:00,1
Novo mesto,SI,Novo mesto,45.80208,15.18206,,14.0,,,2024-05-27T10:00:00+00:00,1
"Nowiny, ul. Parkowa",PL,Nowiny,50.82310799934882,20.533505999814697,,22.8,8.0,51.6,2024-05-27T10:00:00+00:00,1
Knarrdalstranda,NO,Grenland,59.13353999946977,9.6219000003252,13.234311,20.403675,4.560239,,2024-05-27T10:00:00+00:00,1
CERES (CRS),PE,Lima,-12.028694,-76.927056,135.4,184.0,37.28,2.0898000000000003,2024-05-27T10:00:00+00:00,1
종로,KR, ,37.570632999999994,126.99678300000001,9.0,19.0,19.1964,42.2045,2024-05-27T10:00:00+00:00,1
"Meteorological Staions, Lamphun",TH,Lamphun,18.567194,99.038639,9.0,115.0,1.8820000000000001,0.0,2024-05-27T10:00:00+00:00,1
신태인,KR, ,35.688298,126.88977,8.0,19.0,7.339799999999999,53.34648800000001,2024-05-27T10:00:00+00:00,1
산격동,KR, ,35.89324,128.60201000000004,4.0,24.0,17.878999999999998,43.977089,2024-05-27T10:00:00+00:00,1
Nygaardsgata,NO,Fredrikstad,59.21019099944109,10.9400970002783,10.402336,12.590878,9.934782,,2024-05-27T10:00:00+00:00,1
Ajka,HU,Ajka,47.103172,17.561381,7.0,17.0,16.5,36.163,2024-05-27T10:00:00+00:00,1
용수리,KR, ,35.325306000000005,129.178434,5.0,18.0,11.1038,54.190577999999995,2024-05-27T10:00:00+00:00,1
Székesfehérvár,HU,Székesfehérvár,47.195944,18.400246,6.0,14.0,23.9,25.026,2024-05-27T10:00:00+00:00,1
상대동(대전),KR, ,36.3364108,127.3349525,11.0,19.0,13.174,46.42495,2024-05-27T10:00:00+00:00,1
Chanthaburi Meteorological Station,TH,Chanthaburi,12.6095704,102.1040804,8.9,28.0,16.938,15.193619999999997,2024-05-27T10:00:00+00:00,1
EMI mobil 2,HU,EMI mobil 2,48.099356,20.727048999999997,7.0,14.0,6.5,39.431,2024-05-27T10:00:00+00:00,1
"Environment Agency Section 13, Chonburi",TH,Chon Buri,13.35461667,100.9792167,7.8,37.0,18.82,39.67223,2024-05-27T10:00:00+00:00,1
주교면,KR, ,36.390845000000006,126.56944399999999,7.0,16.0,14.8678,13.927484999999999,2024-05-27T10:00:00+00:00,1
"Nysa, ul. Rodziewiczówny",PL,Nysa,50.458988999577414,17.331906000028,27.2724,30.1992,,,2024-05-27T10:00:00+00:00,1
Chokchai Police Station,TH,Bangkok,13.7954248,100.5930298,9.5,3.0,7.5280000000000005,,2024-05-27T10:00:00+00:00,1
"Radomsko, ul. Rolna",PL,Radomsko,51.067417,19.448714,2.5,15.3,7.9,44.849,2024-05-27T10:00:00+00:00,1
"Koniczynka, Pojezierze Chełmińskie",PL,Koniczynka,53.08064699960868,18.68425799990884,,,4.6,45.365,2024-05-27T10:00:00+00:00,1
"Radom, ul. Tochtermana",PL,Radom,51.39908399967271,21.147473999604813,7.8,19.5,5.8,42.613,2024-05-27T10:00:00+00:00,1
용문면,KR, ,37.484356999999996,127.59836700000001,7.0,25.0,11.292,45.749677999999996,2024-05-27T10:00:00+00:00,1
Omkjøringsvegen,NO,Trondheim,63.41049099937343,10.44435199994872,6.216167,12.731833,5.537492,,2024-05-27T10:00:00+00:00,1
과천동,KR, ,37.448806,127.00232900000002,5.0,28.0,10.350999999999999,47.184631,2024-05-27T10:00:00+00:00,1
"Opole, ul. Koszyka",PL,Opole,50.666735999234646,17.899137000188265,5.82819,15.8888,,,2024-05-27T10:00:00+00:00,1
여산면,KR, ,36.059712999999995,127.08331,7.0,22.0,10.5392,52.164762,2024-05-27T10:00:00+00:00,1
Miskolc Alföldi,HU,Miskolc Alföldi,48.09042,20.81201,6.0,16.0,3.2,,2024-05-27T10:00:00+00:00,1
Carrillo Puerto,MX,Querétaro,20.610597222222,-100.43759722222,0.0,25.7,18.801180000000002,37.1906054,2024-05-27T10:00:00+00:00,1
"Hamngatan, Linköping",SE,Stockholm,58.40878,15.631343,9.9,,,,2024-05-27T10:00:00+00:00,1
양양읍,KR, ,38.075256599999996,128.61811409999999,7.0,13.0,5.4578,42.964181,2024-05-27T10:00:00+00:00,1
"Opole, os. Armii Krajowej",PL,Opole,50.676856,17.950278,,,7.55067,36.66395,2024-05-27T10:00:00+00:00,1
부평역,KR, ,37.487643999999996,126.72556299999998,29.0,70.0,52.696,29.627558999999994,2024-05-27T10:00:00+00:00,1
함평읍,KR, ,35.0619768,126.52259070000001,7.0,21.0,5.4578,48.197539,2024-05-27T10:00:00+00:00,1
"Racibórz, Wojska Polskiego",PL,Racibórz,50.09114199958532,18.216261000203303,8.59694,22.2781,6.38714,,2024-05-27T10:00:00+00:00,1
Public Park to commemorate the sixth anniversary of His Majesty the King,TH,Bangkok,13.697252,100.497185,8.3,,,,2024-05-27T10:00:00+00:00,1
"Saphan Sung District Office, Bangkok",TH,Bangkok,13.768892,100.685743,9.0,29.0,,,2024-05-27T10:00:00+00:00,1
Osieczów,PL,Osieczów,51.31762999952827,15.431718999596791,,,2.06284,43.36636,2024-05-27T10:00:00+00:00,1
The Government Public Relations Department,TH,Bangkok,13.783185,100.540489,6.6,20.0,15.056000000000001,26.16679,2024-05-27T10:00:00+00:00,1
"Otwock, ul. Brzozowa",PL,Otwock,52.11572499937447,21.237297000309773,6.5,13.5,3.3,48.676,2024-05-27T10:00:00+00:00,1
"OTOP Center, Ubon Ratchathani",TH,Ubon Ratchathani,15.245413,104.846219,8.0,16.0,18.82,70.90356000000001,2024-05-27T10:00:00+00:00,1
논산,KR, ,36.199272,127.086981,9999.0,6.0,22.2076,19.751706000000002,2024-05-27T10:00:00+00:00,1
고잔동,KR, ,37.3221,126.83050000000001,6.0,21.0,23.7132,47.100222,2024-05-27T10:00:00+00:00,1
"Przemyśl, ul. Grunwaldzka",PL,Przemyśl,49.78433899945685,22.75623900044886,12.609,29.2519,5.66472,41.660163000000004,2024-05-27T10:00:00+00:00,1
안양2동,KR, ,37.4051,126.91779999999999,9999.0,29.0,26.348,41.022774,2024-05-27T10:00:00+00:00,1
"Grajewo, ul. Wojska Polskiego",PL,Grajewo,53.63979299933799,22.470274000311406,9.5,22.2,6.0,,2024-05-27T10:00:00+00:00,1
"Koziegłowy, os.Leśne",PL,Koziegłowy,52.44929499968091,16.99963400043101,,-1.0,7.90266,,2024-05-27T10:00:00+00:00,1
물금읍,KR, ,35.310414,128.987347,3.0,22.0,21.2666,43.132999,2024-05-27T10:00:00+00:00,1
Guty Duże,PL,Guty Duże,52.943172,21.288167,14.0,12.1,2.4,50.74,2024-05-27T10:00:00+00:00,1
녹산동,KR, ,35.0866322,128.86390000000003,12.0,23.0,66.9992,20.933432,2024-05-27T10:00:00+00:00,1
"Łeba, IMGW",PL,Łeba,54.754139,17.534528,,,,44.16702,2024-05-27T10:00:00+00:00,1
"Kungsgatan, Norrköping",SE,Stockholm,58.590397,16.178606,10.9,,,,2024-05-27T10:00:00+00:00,1
동문동,KR, ,36.780177,126.455459,8.0,11.0,19.5728,48.450765999999994,2024-05-27T10:00:00+00:00,1
Hernádszurdok,HU,Hernádszurdok,48.47295,21.212,7.0,15.0,2.5,41.151,2024-05-27T10:00:00+00:00,1
Százhalombatta 1 Búzavirág tér,HU,Százhalombatta 1 Búzavirág tér,47.309166,18.920566000000004,8.0,22.0,21.5,31.862999999999996,2024-05-27T10:00:00+00:00,1
臺東縣 - 臺東,TW,臺東縣,22.755358,121.15044999999999,6.0,22.0,7.1516,16.206528,2024-05-27T10:00:00+00:00,1
Békéscsaba,HU,Békéscsaba,46.668115,21.06731,5.0,9.0,4.8,35.733,2024-05-27T10:00:00+00:00,1
Kransen,NO,Moss,59.43347099955378,10.661762360232748,17.177972,25.217833,19.319453,,2024-05-27T10:00:00+00:00,1
Szolnok,HU,Szolnok,47.17712,20.196879999999997,18.0,28.0,5.6,43.86,2024-05-27T10:00:00+00:00,1
Dorog,HU,Dorog,47.72443,18.73681,,13.0,18.9,1.72,2024-05-27T10:00:00+00:00,1
Putnok,HU,Putnok,48.29351,20.42765,,13.0,0.8,36.464,2024-05-27T10:00:00+00:00,1
Kazincbarcika,HU,Kazincbarcika,48.247032999999995,20.61445,7.0,16.0,6.2,33.497,2024-05-27T10:00:00+00:00,1
Tököl,HU,Tököl,47.3221,18.96109,,25.0,15.3,31.304,2024-05-27T10:00:00+00:00,1
"Wrocław, wyb. Conrada-Korzeniowskiego",PL,Wrocław,51.129377999708545,17.029250000077667,8.47025,21.6733,8.64171,54.590219999999995,2024-05-27T10:00:00+00:00,1
臺北市 - 萬華,TW,臺北市,25.046503,121.507972,11.0,20.0,37.64,24.731837,2024-05-27T10:00:00+00:00,1
Százhalombatta 2 Sportpálya,HU,Százhalombatta 2 Sportpálya,47.32655,18.93296,,13.0,,,2024-05-27T10:00:00+00:00,1
초당동,KR, ,37.785132,128.908776,5.0,20.0,7.9044,48.619583999999996,2024-05-27T10:00:00+00:00,1
Szentgotthárd,HU,Szentgotthárd,46.95623,16.27491,,18.0,2.0,23.306,2024-05-27T10:00:00+00:00,1
"Natural Resources and Environment Office, Mae Hongson",MM,Mae Hong Son,19.30455,97.97165,4.2,12.0,5.646,10.97317,2024-05-27T10:00:00+00:00,1
"Phra Nakhon District Office, Bangkok",TH,Bangkok,13.76415,100.499077,10.2,,,,2024-05-27T10:00:00+00:00,1
"Sosnowiec, ul. Lubelska",PL,Sosnowiec,50.28595599954608,19.184399000404362,,23.7469,3.34334,,2024-05-27T10:00:00+00:00,1
Debrecen Klinika,HU,Debrecen Klinika,47.55862,21.627156,,2.0,0.6,44.161,2024-05-27T10:00:00+00:00,1
Debrecen Hajnal u.,HU,Debrecen Hajnal u.,47.530964000000004,21.639411,,22.0,42.7,,2024-05-27T10:00:00+00:00,1
Provincial Waterworks Authority Mae Moh,TH,Lampang,18.2826333,99.6598166,8.2,6.0,,31.23133,2024-05-27T10:00:00+00:00,1
National Housing Authority Bangplee,TH,Samut Prakan,13.5705,100.7862867,11.1,1.0,,43.04859,2024-05-27T10:00:00+00:00,1
배방읍,KR, ,36.7738,127.053851,7.0,25.0,11.8566,48.197539,2024-05-27T10:00:00+00:00,1
Salgótarján,HU,Salgótarján,48.09444,19.80276,,16.0,5.7,28.552000000000003,2024-05-27T10:00:00+00:00,1
Veszprém,HU,Veszprém,47.089574,17.905054000000003,5.0,10.0,10.6,43.731,2024-05-27T10:00:00+00:00,1
Komló,HU,Komló,46.18928,18.26835,,,10.3,40.377,2024-05-27T10:00:00+00:00,1
"Vác, Csányi krt.",HU,"Vác, Csányi krt.",47.773969,19.139816,,22.0,11.0,26.23,2024-05-27T10:00:00+00:00,1
Sukhothai Thammathirat Open University,TH,Nonthaburi,13.907861,100.535641,9.9,22.0,0.0,0.84409,2024-05-27T10:00:00+00:00,1
Suphan Buri Provincial Central Stadium,TH,Suphun Buri,14.476214,100.086095,13.7,26.0,3.7640000000000002,23.63452,2024-05-27T10:00:00+00:00,1
괴산읍,KR, ,36.80755729999999,127.789237,13.0,18.0,10.1628,48.95722,2024-05-27T10:00:00+00:00,1
Eger 2 Malomárok u.,HU,Eger 2 Malomárok u.,47.9122,20.3725,,23.0,9.7,40.936,2024-05-27T10:00:00+00:00,1
Budapest Gilice tér,HU,Budapest Gilice tér,47.43,19.18111,4.0,29.0,8.7,35.862,2024-05-27T10:00:00+00:00,1
Miskolc Lavotta,HU,Miskolc Lavotta,48.05117,20.79148,,12.0,31.9,11.653,2024-05-27T10:00:00+00:00,1
Várpalota,HU,Várpalota,47.20167,18.143024999999998,15.0,35.0,24.4,32.68,2024-05-27T10:00:00+00:00,1
Mosonmagyaróvár,HU,Mosonmagyaróvár,47.871158,17.273464,,27.0,21.3,26.875,2024-05-27T10:00:00+00:00,1
E6-Tiller,NO,Trondheim,63.35760999976848,10.371739999638633,8.564051,40.145077,11.197981,,2024-05-27T10:00:00+00:00,1
Kecskemét,HU,Kecskemét,46.90234,19.68875,9.0,27.0,8.3,34.916000000000004,2024-05-27T10:00:00+00:00,1
Százhalombatta 3 Liszt Ferenc sétány,HU,Százhalombatta 3 Liszt Ferenc sétány,47.31357,18.90312,,10.0,19.7,31.948999999999998,2024-05-27T10:00:00+00:00,1
"Krempna, Ośrodek edukacyjno-muzealny MPN",PL,Krempna,49.511296999313515,21.49860600013281,,,0.43498,46.626619999999996,2024-05-27T10:00:00+00:00,1
Rudabánya,HU,Rudabánya,48.35173,20.63733,,,10.5,35.131,2024-05-27T10:00:00+00:00,1
EMI mobil 1,HU,EMI mobil 1,47.931903,21.036042,,18.0,10.7,38.227000000000004,2024-05-27T10:00:00+00:00,1
태인동,KR, ,34.941868,127.757069,5.0,16.0,5.2696,41.19159200000001,2024-05-27T10:00:00+00:00,1
Dunaújváros,HU,Dunaújváros,46.965924,18.935198,9.0,26.0,9.1,38.356,2024-05-27T10:00:00+00:00,1
Bangkok University Rangsit Campus,TH,Pathum Thani,14.03742,100.605216,10.1,23.0,3.7640000000000002,16.037709999999997,2024-05-27T10:00:00+00:00,1
Solheim,NO,Lørenskog,59.92861199960054,10.95320299986205,14.991389,23.167917,12.727734,,2024-05-27T10:00:00+00:00,1
Oszlár,HU,Oszlár,47.87345,21.02686,,14.0,2.9,28.466,2024-05-27T10:00:00+00:00,1
Rosedale,AU,Rosedale,-38.15588,146.7842,17.26,,,,2024-05-27T10:00:00+00:00,1
영해면,KR, ,36.537527000000004,129.40708599999996,8.0,27.0,6.3988,53.768533000000005,2024-05-27T10:00:00+00:00,1
Pluakdaeng District Health Office,TH,Rayong,12.97378333,101.21285,16.7,54.0,0.0,25.3227,2024-05-27T10:00:00+00:00,1
Sofienbergparken,NO,Oslo,59.923049999583824,10.765739999885222,-0.03475,0.3134,6.94819,32.11603092,2024-05-27T10:00:00+00:00,1
영양군,KR, ,36.66707,129.11228000000003,4.0,16.0,8.0926,51.320671999999995,2024-05-27T10:00:00+00:00,1
영등포로,KR, ,37.520222,126.90496699999998,9999.0,9999.0,18818118.0,8440055.91,2024-05-27T10:00:00+00:00,1
대야동,KR, ,37.44310000000001,126.78840000000001,8.0,17.0,17.3144,41.698046,2024-05-27T10:00:00+00:00,1
嘉義市 - 嘉義,TW,嘉義市,23.46477865,120.44125148,6.0,17.0,14.4914,17.472662999999997,2024-05-27T10:00:00+00:00,1
중랑구,KR, ,37.58495299999999,127.094283,9.0,21.0,14.3032,40.178684,2024-05-27T10:00:00+00:00,1
"Kutno, ul. 1 Maja",PL,Kutno,52.23190799923777,19.353689000436763,6.7,34.1,8.0,,2024-05-27T10:00:00+00:00,1
여수항,KR, ,34.738486,127.732612,6.0,26.0,15.6206,47.522267,2024-05-27T10:00:00+00:00,1
Smolary Bytnickie,PL,Smolary Bytnickie,52.17222199957522,15.206666999974155,,,2.24713,42.631834,2024-05-27T10:00:00+00:00,1
Beograd Ada Marina,RS,Beograd,44.790166,20.4169,14.510175438596,39.510526315789,16.199074833333,28.919553249999996,2024-05-27T10:00:00+00:00,1
嘉義縣 - 朴子,TW,嘉義縣,23.46538,120.2478,5.0,13.0,11.6684,12.408122999999998,2024-05-27T10:00:00+00:00,1
Beograd Ada petlja,RS,Beograd,44.7913433933573,20.4256007812383,17.283833333333,57.861333333333,40.585361666667,19.817764750000002,2024-05-27T10:00:00+00:00,1
"Bang Phlat District Office, Bangkok",TH,Bangkok,13.793965,100.504956,15.3,,,,2024-05-27T10:00:00+00:00,1
Beograd Banovo brdo,RS,Beograd Banovo brdo,44.777284,20.409701,13.516333333333,36.542166666667,18.765549,26.00858225,2024-05-27T10:00:00+00:00,1
성남동1,KR, ,36.344444,127.437222,6.0,20.0,13.174,42.373318000000005,2024-05-27T10:00:00+00:00,1
"Din Dang, Bangkok",TH,Bangkok,13.7619223,100.558606,15.4,49.0,,,2024-05-27T10:00:00+00:00,1
Beograd Barajevo,RS,Beograd,44.58871,20.429121,9.8796666666667,22.572,4.8619541666667,,2024-05-27T10:00:00+00:00,1
Loddefjord,NO,Bergen,60.3611349996822,5.2368600003982895,5.935919,12.3239,29.655643,,2024-05-27T10:00:00+00:00,1
"Łomża, ul. Sikorskiego",PL,Łomża,53.181393999678164,22.054381000172054,,13.4,5.4,,2024-05-27T10:00:00+00:00,1
"Polytechnic College, Trang",TH,Trang,7.570238000000001,99.58874300000001,11.2,30.0,3.7640000000000002,23.63452,2024-05-27T10:00:00+00:00,1
Rådal,NO,Bergen,60.29426799937496,5.324618999567106,4.879958,7.863472,9.611593,,2024-05-27T10:00:00+00:00,1
"Rzeszów, ul. Rejtana",PL,Rzeszów,50.02424199932632,22.01057500029503,,18.5913,4.1825,46.19404,2024-05-27T10:00:00+00:00,1
Beograd Bežanijska kosa,RS,Beograd,44.815028000000005,20.3779,10.748333333333,23.565,17.075820666667,27.36398525,2024-05-27T10:00:00+00:00,1
Kongens gate,NO,Narvik,68.43541229977691,17.42491270016847,13.718569,41.059747,,,2024-05-27T10:00:00+00:00,1
Beograd Borča,RS,Beograd,44.873952,20.446585,12.973,32.1875,21.038711833333,31.001269249999996,2024-05-27T10:00:00+00:00,1
진영읍,KR, ,35.3077015,128.7311228,10.0,27.0,12.0448,42.120090999999995,2024-05-27T10:00:00+00:00,1
서해,KR, ,37.460709,126.631266,12.0,24.0,32.5586,41.698046,2024-05-27T10:00:00+00:00,1
"Rybnik, ul. Borki",PL,Rybnik,50.11118099971218,18.516138999663365,,11.596,8.23559,45.63719,2024-05-27T10:00:00+00:00,1
양평읍,KR, ,37.496975,127.48665900000002,5.0,23.0,9.41,49.126038,2024-05-27T10:00:00+00:00,1
안양8동,KR, ,37.384904,126.931247,12.0,26.0,16.1852,39.503412000000004,2024-05-27T10:00:00+00:00,1
"Strzelce Opolskie, ul. Kard. Wyszyńskiego",PL,Strzelce Opolskie,50.50933399929428,18.288205999618302,6.92133,18.0987,30.4699,,2024-05-27T10:00:00+00:00,1
Beograd Despota Stefana ,RS,Beograd,44.8168146768154,20.4699406027794,16.609166666667,41.824166666667,77.262031,,2024-05-27T10:00:00+00:00,1
Spotswood,AU,Spotswood,-37.82743,144.8801,16.93,11.32,,,2024-05-27T10:00:00+00:00,1
Library under King Taksin Bridge,TH,Bangkok,13.719705,100.508782,13.6,,,,2024-05-27T10:00:00+00:00,1
Beograd Dragiša Mišović,RS,Beograd,44.777237,20.457029,13.967,37.113166666667,21.316082333333,25.95997075,2024-05-27T10:00:00+00:00,1
Beograd Franša Deperea,RS,Beograd,44.794262,20.463173,17.0945,59.453333333333,44.031769833333,20.369648249999997,2024-05-27T10:00:00+00:00,1
Beograd Lazarevac ,RS,Lazarevac ,44.384113,20.265436,12.9615,30.966666666667,4.9607873333333,,2024-05-27T10:00:00+00:00,1
Beograd Leštane,RS,Beograd-Leštane,44.728534,20.580721,11.375892857143,42.350714285714,23.343756333333,35.201874749999995,2024-05-27T10:00:00+00:00,1
"City Hall, Narathiwat",TH,Narathiwat,6.426853,101.823388,14.1,30.0,16.938,32.075419999999994,2024-05-27T10:00:00+00:00,1
Mooroolbark,AU,Melbourne,-37.77512,145.3284,12.28,21.44,,0.34607689999999997,2024-05-27T10:00:00+00:00,1
Footscray,AU,Melbourne,-37.80266,144.8778,10.65,21.79,,,2024-05-27T10:00:00+00:00,1
"Meteorological stations, Sakon Nakhon",TH,Sakon Nakhon,17.15662,104.13321599999999,10.6,20.0,20.701999999999998,19.41407,2024-05-27T10:00:00+00:00,1
연지동,KR, ,35.568445,126.845886,5.0,15.0,11.8566,41.19159200000001,2024-05-27T10:00:00+00:00,1
Beograd Mladenovac,RS,Beograd-Mladenovac,44.44404699999999,20.696033,10.826833333333,43.52,14.295739333333,36.138360999999996,2024-05-27T10:00:00+00:00,1
"Płock, ul. Reja",PL,Płock,52.55093799926865,19.70979100034274,5.3,18.8,10.2,48.202999999999996,2024-05-27T10:00:00+00:00,1
屏東縣 - 屏東(枋山),TW,屏東縣,22.260899,120.651472,5.0,15.0,2.2584,25.491518,2024-05-27T10:00:00+00:00,1
대성동,KR, ,36.3018429,127.4602048,7.0,21.0,15.2442,44.905587999999995,2024-05-27T10:00:00+00:00,1
Suan Luang Rama IX,TH,Bangkok,13.6881393,100.6579657,2.5,,,,2024-05-27T10:00:00+00:00,1
남상면,KR, ,35.643167,127.9105,12.0,17.0,10.9156,46.93140399999999,2024-05-27T10:00:00+00:00,1
Ramintra Sports Park,TH,Bangkok,13.8778763,100.6207085,10.1,,,,2024-05-27T10:00:00+00:00,1
"72nd Anniversary King Bhumibol Public Park, Uttaradit",TH,Uttaradit,17.631351999999996,100.09896000000002,10.4,26.0,11.292,23.63452,2024-05-27T10:00:00+00:00,1
Samyan Mitrtown,TH,Bangkok,13.733136,100.52829,12.5,,,,2024-05-27T10:00:00+00:00,1
彰化縣 - 彰化（員林）,TW,彰化縣,23.96117,120.56373,10.0,23.0,23.3368,21.271068,2024-05-27T10:00:00+00:00,1
곡성읍,KR, ,35.2834576,127.2896401,5.0,12.0,4.8932,52.080352999999995,2024-05-27T10:00:00+00:00,1
新北市 - 林口,TW,新北市,25.077989489999997,121.36548982,4.0,16.0,20.5138,21.186659000000002,2024-05-27T10:00:00+00:00,1
South Bangkok Power Plant,TH,Samut Prakan,13.618,100.5562,8.5,15.0,5.646,10.12908,2024-05-27T10:00:00+00:00,1
新北市 - 汐止,TW,新北市,25.066239999999997,121.64081,15.0,14.0,36.5108,22.959248,2024-05-27T10:00:00+00:00,1
Hansjordnesbukta,NO,Tromsø,69.65624999977999,18.963719999584818,27.581667,64.843167,40.907124,,2024-05-27T10:00:00+00:00,1
부여읍,KR, ,36.275495,126.911297,8.0,15.0,12.6094,40.685138,2024-05-27T10:00:00+00:00,1
Wilczopole,PL,Wilczopole,51.16354199961158,22.598608000028758,,,,52.116,2024-05-27T10:00:00+00:00,1
新竹縣 - 竹東,TW,新竹縣,24.74091408,121.08895493,5.0,7.0,9.9746,19.498478999999996,2024-05-27T10:00:00+00:00,1
부산항,KR, ,35.077711,128.784773,8.0,33.0,27.289,51.067445,2024-05-27T10:00:00+00:00,1
Lensmannsdalen,NO,Grenland,59.15929999938357,9.635729999807133,12.7,30.14,1.093031,,2024-05-27T10:00:00+00:00,1
"Jastrzębie-Zdrój, Al.J.Piłsudskiego/Harcerska",PL,Jastrzębie-Zdrój,49.952543999479566,18.607953000312907,8.38557,,14.0729,,2024-05-27T10:00:00+00:00,1
桃園市 - 桃園,TW,桃園市,24.9947107,121.30500531,9.0,19.0,42.909600000000005,15.446847,2024-05-27T10:00:00+00:00,1
종로구,KR, ,37.572025,127.005028,9.0,20.0,15.056000000000001,45.665269,2024-05-27T10:00:00+00:00,1
Wangaratta,AU,Wangaratta,-36.36926,146.3133,54.34,,,,2024-05-27T10:00:00+00:00,1
桃園市 - 龍潭,TW,桃園市,24.86400048,121.21645772,8.0,15.0,28.418200000000002,13.252213,2024-05-27T10:00:00+00:00,1
명지동,KR, ,35.105555,128.925833,7.0,19.0,36.5108,37.899641,2024-05-27T10:00:00+00:00,1
Khao Noi Fire Station,TH,Saraburi,14.526343,100.926047,9.9,23.0,0.0,73.43583,2024-05-27T10:00:00+00:00,1
Vårveien,NO,Drammen,59.753617999678816,10.144396999597447,14.8,25.8,,,2024-05-27T10:00:00+00:00,1
"Włocławek, ul. Kaliska",PL,Włocławek,52.637394,19.044486,,22.1,9.5,43.473,2024-05-27T10:00:00+00:00,1
臺中市 - 大里,TW,臺中市,24.09961111,120.67844444,6.0,10.0,25.0306,13.50544,2024-05-27T10:00:00+00:00,1
아암,KR, ,37.40508,126.63227000000002,15.0,18.0,11.292,42.626545,2024-05-27T10:00:00+00:00,1
Rommani Thungsikan Park,TH,Bangkok,13.9288678,100.5684666,14.8,,,,2024-05-27T10:00:00+00:00,1
함양읍,KR, ,35.5211721,127.7244433,7.0,20.0,10.1628,48.535175,2024-05-27T10:00:00+00:00,1
Beograd Obrenovac,RS,Obrenovac,44.6699995831708,20.1973316073418,13.785833333333,40.140166666667,20.232105666667,,2024-05-27T10:00:00+00:00,1
"Chełm, ul. Połaniecka",PL,Chełm,51.122146999290884,23.473075000428317,,15.7,,,2024-05-27T10:00:00+00:00,1
"Tulegatan, Sundbyberg",SE,Stockholm,59.3667459,17.9688665,9.0,23.0,14.8,,2024-05-27T10:00:00+00:00,1
Beograd Obrenovac Ušće,RS,Beograd Obrenovac Ušće,44.629741,20.011135,11.870833333333,26.0375,4.7312393333333,,2024-05-27T10:00:00+00:00,1
Beograd Ovča,RS,Beograd,44.88411200000001,20.527552,11.779655172414,32.189137931034,16.992928333333,32.76987,2024-05-27T10:00:00+00:00,1
Rambergan,NO,Tromsø,69.65427999969124,18.956360000054083,,47.369667,,,2024-05-27T10:00:00+00:00,1
臺中市 - 豐原,TW,臺中市,24.25699731,120.74252414,1.0,7.0,7.1516,22.452793999999997,2024-05-27T10:00:00+00:00,1
고성읍,KR, ,34.974543611,128.32436980500003,11.0,27.0,20.3256,47.944312000000004,2024-05-27T10:00:00+00:00,1
臺北市 - 士林,TW,臺北市,25.10334003,121.51666356,12.0,21.0,33.876,25.575927,2024-05-27T10:00:00+00:00,1
Beograd Sopot,RS,Beograd,44.51980699999999,20.578488,8.3051666666667,24.502,2.2540338333333,45.488926,2024-05-27T10:00:00+00:00,1
"Kraków, ul. Bulwarowa",PL,Kraków,50.069307999332516,20.05349200029658,9.99859,21.2373,9.10324,,2024-05-27T10:00:00+00:00,1
Thonburirom Park,TH,Bangkok,13.6502295,100.4909771,7.3,,,,2024-05-27T10:00:00+00:00,1
Queen Sirikit Park,TH,Bangkok,13.8055472,100.5488338,10.1,,,,2024-05-27T10:00:00+00:00,1
Beograd Stojčino Brdo,RS,Beograd,44.776953,20.535435,11.117142857143,29.700178571429,18.303264833333,33.060109250000004,2024-05-27T10:00:00+00:00,1
臺北市 - 大同,TW,臺北市,25.06331455,121.51342074,21.0,32.0,78.4794,8.272082000000001,2024-05-27T10:00:00+00:00,1
상남리,KR, ,35.493249999999996,129.305696,9.0,13.0,26.9126,40.769546999999996,2024-05-27T10:00:00+00:00,1
"Szarów, ul. Spokojna",PL,Szarów,50.00749999927904,20.25916699967758,,,4.65061,33.2304,2024-05-27T10:00:00+00:00,1
"Wang Thonglang District Office, Bangkok",TH,Bangkok,13.778981,100.622294,9.2,,,,2024-05-27T10:00:00+00:00,1
Lillehammer barnehage,NO,Lillehammer,61.120869999564455,10.46562999972325,9.691389,17.652861,8.617754,,2024-05-27T10:00:00+00:00,1
Beograd Surčin,RS,Beograd,44.79240000000001,20.272734,13.0495,27.015,13.814326166667,35.19329625,2024-05-27T10:00:00+00:00,1
벌교읍,KR, ,34.8419256,127.34777770000001,3.0,21.0,6.3988,47.100222,2024-05-27T10:00:00+00:00,1
Beograd Topčiderska Zvezda,RS,Beograd Topčiderska Zvezda,44.788646,20.444507,13.9255,46.103333333333,27.8040015,21.1517215,2024-05-27T10:00:00+00:00,1
"Rat Burana District Office,  Bangkok",TH,Bangkok,13.6821364,100.5060513,17.4,49.0,,,2024-05-27T10:00:00+00:00,1
Akureyri Strandgata (við Hof),IS,Akureyri,65.68409199986785,-18.088205000320293,,9.0,48.1006,,2024-05-27T10:00:00+00:00,1
臺南市 - 善化,TW,臺南市,23.113376420000005,120.29740529000001,7.0,13.0,12.4212,17.557071999999998,2024-05-27T10:00:00+00:00,1
"Chomthong District Office, Bangkok",TH,Bangkok,13.677757,100.483861,8.5,22.0,,,2024-05-27T10:00:00+00:00,1
Wschowa ul. Kazimierza Wielkiego,PL,Wschowa,51.799721999367044,16.31749999982715,3.55662,8.66474,3.93606,42.64955,2024-05-27T10:00:00+00:00,1
초량동,KR, ,35.127142,129.046701,6.0,20.0,35.5698,37.815231999999995,2024-05-27T10:00:00+00:00,1
"Florianka, RPN",PL,Florianka,50.551893999480086,22.982861000066595,,,1.43475,46.804296,2024-05-27T10:00:00+00:00,1
내당동,KR, ,35.859,128.55183,4.0,20.0,15.8088,44.399134,2024-05-27T10:00:00+00:00,1
내일동,KR, ,35.493677999999996,128.75416799999996,3.0,26.0,20.3256,44.483543,2024-05-27T10:00:00+00:00,1
합덕읍,KR, ,36.79049800000001,126.785915,5.0,15.0,8.0926,52.50239799999999,2024-05-27T10:00:00+00:00,1
"Szczecin, ul. Piłsudskiego",PL,Szczecin,53.43216899965447,14.553900000393247,15.9188,24.799,21.9317,,2024-05-27T10:00:00+00:00,1
Våland,NO,Stavanger,58.96164999957566,5.731399999707435,6.359081,9.929056,5.011765,,2024-05-27T10:00:00+00:00,1
臺南市 - 安南,TW,臺南市,23.048197,120.21749999999999,7.0,15.0,10.9156,13.674258,2024-05-27T10:00:00+00:00,1
臺南市 - 臺南,TW,臺南市,22.98928311,120.21947897,7.0,15.0,11.4802,14.855984,2024-05-27T10:00:00+00:00,1
Beograd Vinča,RS,Beograd,44.766649,20.61098,9.2925862068966,29.613448275862,12.357334,36.907566499999994,2024-05-27T10:00:00+00:00,1
"Rzeszów, ul. Piłsudskiego",PL,Rzeszów,50.04067499937915,22.00465599998965,7.36974,15.5224,15.9913,,2024-05-27T10:00:00+00:00,1
"Białystok, al.Piłsudskiego",PL,Białystok,53.13528599938427,23.161325000022305,6.3,15.5,31.8,,2024-05-27T10:00:00+00:00,1
수지,KR, ,37.327926999999995,127.09521500000001,11.0,28.0,16.7498,40.853956,2024-05-27T10:00:00+00:00,1
치평동,KR, ,35.151625,126.853292,4.0,16.0,18.4436,42.457727,2024-05-27T10:00:00+00:00,1
탄천면,KR, ,36.308600000000006,127.06721,8.0,16.0,6.7752,46.678177,2024-05-27T10:00:00+00:00,1
Beograd Vračar Dom zdravlja,RS,Beograd,44.796427,20.486154,13.8265,32.747166666667,23.646632166667,,2024-05-27T10:00:00+00:00,1
Churchill,AU,Churchill,-38.3043137,146.414932,20.93,28.5,,,2024-05-27T10:00:00+00:00,1
Beograd Zemun TB,RS,Beograd,44.835246,20.403299,12.483333333333,40.585,21.411727333333,,2024-05-27T10:00:00+00:00,1
Svanvik,NO,Sør-Varanger,69.45505,30.04075,,,,35.242799999999995,2024-05-27T10:00:00+00:00,1
Rama VIII Park,TH,Bangkok,13.7693437,100.4945337,11.5,,,,2024-05-27T10:00:00+00:00,1
Benjakitti Park,TH,Bangkok,13.7328791,100.5600172,8.4,,,,2024-05-27T10:00:00+00:00,1
National Economic and Social Development Council Office,TH,Bangkok,13.756281,100.514267,11.8,43.0,,,2024-05-27T10:00:00+00:00,1
Alnabru,NO,Oslo,59.927689999672594,10.846550000325356,12.686223,29.389712,22.587261,,2024-05-27T10:00:00+00:00,1
Alphington,AU,Melbourne,-37.7784081,145.03060000000002,15.13,31.57,41.403999999999996,0.3545178,2024-05-27T10:00:00+00:00,1
송단리,KR, ,35.177167,127.175167,3.0,6.0,4.705,39.841048,2024-05-27T10:00:00+00:00,1
Beograd Zemun Ugrinovačka,RS,Beograd,44.849212,20.377265999999995,13.519,38.766,22.766698166667,33.816447,2024-05-27T10:00:00+00:00,1
임실읍,KR, ,35.614526000000005,127.28632900000001,9.0,22.0,10.727400000000001,52.164762,2024-05-27T10:00:00+00:00,1
Riccarton Road,NZ,Christchurch,-43.530356,172.589048,,,43.7811661,,2024-05-27T10:00:00+00:00,1
Veliki Crljeni,RS,Beograd,44.4758084725346,20.3089141845703,28.921333333333,246.55883333333,9.2456833333333,,2024-05-27T10:00:00+00:00,1
Altona North,AU,Altona North,-37.8441238,144.861618,11.85,,58.342,,2024-05-27T10:00:00+00:00,1
"Złoty Potok, Leśniczówka",PL,Złoty Potok,50.710888999695065,19.458797000092712,9.13979,11.5319,2.97953,48.54141,2024-05-27T10:00:00+00:00,1
삽교읍,KR, ,36.688131,126.739314,8.0,17.0,7.716200000000001,37.562005,2024-05-27T10:00:00+00:00,1
臺南市 - 臺南（麻豆）,TW,臺南市,23.17904722,120.24583056000002,3.0,19.0,10.350999999999999,11.226396999999999,2024-05-27T10:00:00+00:00,1
건국동,KR, ,35.22933,126.86186,5.0,16.0,18.0672,36.633506,2024-05-27T10:00:00+00:00,1
"Bang Kho Laem District Office, Bangkok (Mobile)",TH,Bangkok,13.69304,100.50244,7.5,,,,2024-05-27T10:00:00+00:00,1
Washdyke Alpine,NZ,Timaru,-44.356199,171.242334,8.2844286,12.0804653,,,2024-05-27T10:00:00+00:00,1
Woolston,NZ,Christchurch,-43.557532,172.681343,70.7208328,95.2777939,,,2024-05-27T10:00:00+00:00,1
Rangiora,NZ,Rangiora,-43.307439,172.594745,15.8224392,17.5581627,,,2024-05-27T10:00:00+00:00,1
苗栗縣 - 三義,TW,苗栗縣,24.38248443,120.75956754000002,2.0,8.0,2.0702000000000003,25.407109,2024-05-27T10:00:00+00:00,1
Christchurch - St Albans EP,NZ,St Albans EP,-43.508568,172.635835,30.4192696,43.0027924,38.3076663,,2024-05-27T10:00:00+00:00,1
"Natural Resources and Environment Office, Chainat",TH,Chainat,15.173056,100.126944,7.8,,,,2024-05-27T10:00:00+00:00,1
苗栗縣 - 苗栗,TW,苗栗縣,24.56499183,120.82011468,3.0,10.0,4.3286,21.524295,2024-05-27T10:00:00+00:00,1
臺中市 - 大甲（日南國小）,TW,臺中市,24.39017512,120.65525382,0.0,11.0,16.3734,23.043657,2024-05-27T10:00:00+00:00,1
Ashburton,NZ,Ashburton,-43.912238,171.7552,36.7036362,38.9347649,12.2248329,,2024-05-27T10:00:00+00:00,1
외동읍,KR, ,35.715642800000005,129.3234158,5.0,17.0,11.8566,36.971142,2024-05-27T10:00:00+00:00,1
장흥동,KR, ,35.980182000000006,129.37479499999998,6.0,28.0,20.3256,43.301817,2024-05-27T10:00:00+00:00,1
Bangu,BR,Rio de Janeiro,-22.8879,-43.4711,,18.67,19.03,3.096,2024-05-27T10:00:00+00:00,1
苗栗縣 - 頭份,TW,苗栗縣,24.69690679,120.89869286,2.0,17.0,7.1516,22.199567,2024-05-27T10:00:00+00:00,1
雲林縣 - 臺西,TW,雲林縣,23.702175,120.19933332999999,10.0,22.0,7.1516,15.868892,2024-05-27T10:00:00+00:00,1
양구읍,KR, ,38.1092365,127.98946790000001,6.0,12.0,6.9634,48.535175,2024-05-27T10:00:00+00:00,1
