location,latitude,longitude,aqi,last_updated,size
"Coyhaique II, Chile",-45.579045667164,-72.049964505825,152,2024-05-27T03:00:00+09:00,1
"Vialidad, Chile",-45.40680023471,-72.696259617805,57,2024-05-27T04:00:00+09:00,1
"Punta Arenas, Chile",-53.158295492238,-70.921497482453,5,2024-05-27T04:00:00+09:00,1
"Gore Gore At Main Street, New Zealand",-46.10620888899,168.9396792352,9,2024-05-27T03:00:00+09:00,1
"Invercargill Invercargill At Pomona Street, New Zealand",-46.431928390214,168.36991681188,9,2024-05-27T03:00:00+09:00,1
"Eme F, Chile",-28.466423001884,-71.221554279327,17,2024-05-27T04:00:00+09:00,1
"Club Deportivo 23 De Marzo, Chile",-22.460270722943,-68.937706917007,39,2024-05-27T04:00:00+09:00,1
"estacion01, Cuenca, Ecuador",-2.897,-79.003,34,2024-05-27T03:00:00+09:00,1
"Guaratinguetá, São Paulo, Brazil",-22.801917139,-45.19112236,24,2024-05-27T03:00:00+09:00,1
"Piracicaba, São Paulo, Brazil",-22.70122234,-47.64965269,21,2024-05-27T04:00:00+09:00,1
"Valdivia, Chile",-39.831316104673,-73.22851282209,63,2024-05-27T04:00:00+09:00,1
"Alerce, Chile",-41.399169537038,-72.899522781372,63,2024-05-27T04:00:00+09:00,1
"Padre Las Casas II, Chile",-38.764767451719,-72.598795682209,124,2024-05-27T04:00:00+09:00,1
"Guamaní, Quito, Ecuador",-0.333949,-78.553416,64,2024-05-27T03:00:00+09:00,1
"Carapina, Espírito Santo, Brazil",-20.2322,-40.25489,0,2024-05-25T20:00:00+09:00,1
"Osasco, São Paulo, Brazil",-23.526721419,-46.792077661,38,2024-05-27T03:00:00+09:00,1
"Punteras, Chile",-36.923329602986,-73.036132300941,109,2024-05-27T03:00:00+09:00,1
"Universidad de Talca, Chile",-35.406582744695,-71.633396474869,107,2024-05-27T04:00:00+09:00,1
"Concón, Chile",-32.924568,-71.515399,865,2024-05-27T04:00:00+09:00,1
"Araçatuba, São Paulo, Brazil",-21.1868411,-50.43931685,15,2024-05-27T04:00:00+09:00,1
"Catanduva, São Paulo, Brazil",-21.141942758,-48.983075271,22,2024-05-27T04:00:00+09:00,1
"Alto Hospicio, Chile",-20.290466881209,-70.100192427636,13,2024-05-27T04:00:00+09:00,1
"Santos-Ponta da Praia, São Paulo, Brazil",-23.981295157,-46.300509594,34,2024-05-27T04:00:00+09:00,1
"Taubaté, São Paulo, Brazil",-23.032350959,-45.575805025,9,2024-05-27T04:00:00+09:00,1
"Rancagua I, Chile",-34.162314609087,-70.713919225517,34,2024-05-27T03:00:00+09:00,1
"Pudahuel, Chile",-33.437811379126,-70.750171233135,78,2024-05-27T03:00:00+09:00,1
"Ventanas, Chile",-32.741815962175,-71.480882901344,59,2024-05-27T04:00:00+09:00,1
"Arica, Chile",-18.47683929771,-70.287911433372,34,2024-05-27T04:00:00+09:00,1
"Club De Empleados, Chile",-37.501844565823,-72.676405906677,158,2024-05-27T03:00:00+09:00,1
"San Carlos, Chile",-36.461054075054,-71.971435546875,89,2024-05-27T03:00:00+09:00,1
"Coquimbo, Chile",-29.970390235273,-71.336038250122,25,2024-05-27T04:00:00+09:00,1
"San Juan De Lurigancho, Lima, Peru",-11.98164,-76.99925,100,2024-05-27T04:00:00+09:00,1
"Jacareí, São Paulo, Brazil",-23.294199244,-45.968233864,11,2024-05-27T00:00:00+09:00,1
"Ibirapuera, São Paulo, Brazil",-23.59184199,-46.660687503,57,2024-05-27T04:00:00+09:00,1
"Cuerpo De Bomberos, Chile",-32.885091,-71.246854,25,2024-05-27T04:00:00+09:00,1
"Bauru, São Paulo, Brazil",-22.326608397,-49.092759305,13,2024-05-27T04:00:00+09:00,1
"Nueva Libertad, Chile",-36.735998,-73.118693,97,2024-05-27T04:00:00+09:00,1
"Cuncumen , Chile",-31.889278312544,-70.629311769684,5,2024-05-27T03:00:00+09:00,1
"Antofagasta, Chile",-23.61354215815,-70.383315682411,21,2024-05-27T04:00:00+09:00,1
"Presidente Prudente, São Paulo, Brazil",-22.119936735,-51.408777068,12,2024-05-27T04:00:00+09:00,1
"Campinas-V.União, São Paulo, Brazil",-22.946728416,-47.119280862,38,2024-05-27T04:00:00+09:00,1
"Ribeirão Preto, São Paulo, Brazil",-21.177065942,-47.818987671,30,2024-05-27T04:00:00+09:00,1
"Vila Velha - IBES, Espírito Santo, Brazil",-20.34865,-40.31742,26,2024-05-27T04:00:00+09:00,1
"Rengo, Chile",-34.394541417902,-70.852981542328,53,2024-05-27T04:00:00+09:00,1
"Marília, São Paulo, Brazil",-22.199809487,-49.959969746,20,2024-05-27T04:00:00+09:00,1
"Super Site, Chile",-22.085864134728,-70.188415616234,53,2024-05-27T03:00:00+09:00,1
"Laranjeiras, Espírito Santo, Brazil",-20.19614,-40.24521,0,2024-05-25T05:00:00+09:00,1
"São Sebastião, São Paulo, Brazil",-23.805225613,-45.400052495,20,2024-05-27T04:00:00+09:00,1
"Cauquenes Sivica, Chile",-35.969115075775,-72.316818237305,42,2024-05-27T04:00:00+09:00,1
"Curicó, Chile",-34.974925077541,-71.233967512329,61,2024-05-27T04:00:00+09:00,1
"Sorocaba, São Paulo, Brazil",-23.502426584,-47.479029912,12,2024-05-27T04:00:00+09:00,1
"Jaú, São Paulo, Brazil",-22.298619664,-48.567457405,10,2024-05-27T04:00:00+09:00,1
"São José do Rio Preto, São Paulo, Brazil",-20.784689284,-49.398277793,70,2024-05-27T04:00:00+09:00,1
"S.José Campos-Jd.Satélite, São Paulo, Brazil",-23.223645482,-45.890799996,42,2024-05-27T04:00:00+09:00,1
"Valdivia 2, Chile",-39.805429279912,-73.258729546745,9,2024-05-27T04:00:00+09:00,1
"Balneario Curanilahue, Chile",-37.485131692556,-73.331626473541,95,2024-05-27T04:00:00+09:00,1
"Las Condes, Chile",-33.37677352033,-70.523326784061,74,2024-05-27T03:00:00+09:00,1
"La Matanza, Acumar, Argentina",-34.6775885,-58.701767,42,2024-05-27T03:00:00+09:00,1
"San Fernando, Chile",-27.393267718517,-70.298615435165,53,2024-05-27T03:00:00+09:00,1
"Araraquara, São Paulo, Brazil",-21.782522146,-48.185831813,15,2024-05-27T04:00:00+09:00,1
"Tatuí, São Paulo, Brazil",-23.360751538,-47.870799066,12,2024-05-27T04:00:00+09:00,1
"Osorno, Chile",-40.584478665958,-73.11871982209,25,2024-05-27T04:00:00+09:00,1
"Las Encinas Temuco, Chile",-38.74869912298,-72.620788228172,163,2024-05-27T03:00:00+09:00,1
"Belisario, Quito, Ecuador",-0.184719,-78.495986,65,2024-05-27T03:00:00+09:00,1
"Hamilton Claudelands, New Zealand",-37.777543176927,175.28715904723,21,2024-05-27T03:00:00+09:00,1
Scottsdale,-41.162,147.515,13,2024-05-27T03:00:00+09:00,1
Upper-hunter Camberwell,-32.472333,151.091803,19,2024-05-27T04:00:00+09:00,1
Blackwater,-23.5627,148.8807,0,2024-05-24T12:00:00+09:00,1
Geraldton,-28.7732192,114.6096326,4,2024-05-27T04:00:00+09:00,1
"Maros, Indonesia",-4.9655024,119.69284341781,54,2024-05-27T04:00:00+09:00,1
"Marikana CC-NAQI, Bojanala Platinum, South Africa",-25.698444,27.480111,80,2024-05-27T04:00:00+09:00,1
"Hastings St Johns, New Zealand",-39.638873262,176.85880199271,25,2024-05-27T03:00:00+09:00,1
New Norfolk,-42.776,147.054,34,2024-05-27T03:00:00+09:00,1
Mountain Creek,-26.6917,153.1038,0,2024-05-24T12:00:00+09:00,1
"Hermanus, Overberg, South Africa",-34.213,19.213,20,2024-05-27T04:00:00+09:00,1
"Eskom-Gourikwa, Mossel Bay, South Africa",-34.179158,22.097439,1,2024-05-27T04:00:00+09:00,1
"Kaiapoi, New Zealand",-43.3830321,172.6569578,96,2024-05-27T04:00:00+09:00,1
Devonport,-41.185,146.345,50,2024-05-27T03:00:00+09:00,1
Morwell Sth.,-38.2392921,146.3873,102,2024-05-27T04:00:00+09:00,1
Rosedale,-38.15588,146.7842,57,2024-05-27T04:00:00+09:00,1
"Eskom-Medupi, Waterberg, South Africa",-23.738521,27.540346,0,2024-05-25T07:00:00+09:00,1
"Taihape Air Quality At Taihape, New Zealand",-39.6778,175.80084,17,2024-05-27T03:00:00+09:00,1
S. Launceston,-41.465,147.148,70,2024-05-27T03:00:00+09:00,1
Swan Hill,-35.34314,143.534088,126,2024-05-27T04:00:00+09:00,1
Oatlands,-42.3,147.372,13,2024-05-27T03:00:00+09:00,1
Deloraine,-41.523,146.658,30,2024-05-27T03:00:00+09:00,1
Northern Adelaide (Elizabeth),-34.698472,138.695751,0,2024-05-24T06:30:00+09:00,1
Boyne Island,-23.9408,151.3507,0,2024-05-24T12:00:00+09:00,1
Western LLS Pooncarie,-33.6016,142.5308,0,2024-05-26T19:00:00+09:00,1
"Logicoop, New Caledonia",-22.235411111111,166.43382777778,62,2024-05-27T01:00:00+09:00,1
Bream Creek,-42.819,147.817,9,2024-05-27T03:00:00+09:00,1
Western LLS Cobar,-31.4837,145.8293,26,2024-05-27T04:00:00+09:00,1
Kalgoorlie,-30.749,121.466,6,2024-05-27T04:00:00+09:00,1
"Kotabaru, Indonesia",-2.79510965,115.97125475604,14,2024-05-27T04:00:00+09:00,1
"Pangkalanbun, Indonesia",-2.676583,111.626448,54,2024-05-27T04:00:00+09:00,1
"Malang, Indonesia",-7.9551897,112.6119383,124,2024-05-27T04:00:00+09:00,1
Kembla Grange Illawarra,-34.47442,150.8192,48,2024-05-27T04:00:00+09:00,1
"Florey, Canberra",-35.220606,149.043539,104,2024-05-27T04:00:00+09:00,1
Orange Central Tablelands,-33.27429,149.09447,54,2024-05-27T04:00:00+09:00,1
Western LLS Bourke,-30.0362,145.9521,4,2024-05-27T04:00:00+09:00,1
Spencer Gulf Whyalla,-33.0343994,137.5849148,0,2024-05-24T06:30:00+09:00,1
Mandurah,-32.5361,115.7424,6,2024-05-27T04:00:00+09:00,1
"Palangka Raya, Indonesia",-2.21,113.92,60,2024-05-27T04:00:00+09:00,1
"Damonsville, Bojanala Platinum, South Africa",-25.625702,27.851825,181,2024-05-27T04:00:00+09:00,1
Murray LLS Rand,-35.6296,146.4752,54,2024-05-27T04:00:00+09:00,1
W. Ulverstone,-41.159,146.146,30,2024-05-27T03:00:00+09:00,1
Melbourne CBD,-37.8073959,144.97,73,2024-05-27T04:00:00+09:00,1
Macleod,-37.722477,145.0576,61,2024-05-27T04:00:00+09:00,1
"Secunda, Gert Sibande, South Africa",-26.550639,29.079028,151,2024-05-27T04:00:00+09:00,1
Campbell Town,-41.928,147.491,13,2024-05-27T03:00:00+09:00,1
Western LLS White Cliffs,-30.8517,143.0742,4,2024-05-27T04:00:00+09:00,1
The Gap,-20.7264,139.4977,0,2024-05-24T12:00:00+09:00,1
"Mafikeng-NAQI, Ngaka Modiri Molema, South Africa",-25.835814,25.614534,184,2024-05-27T04:00:00+09:00,1
Adelaide CBD,-34.928853,138.600943,0,2024-05-24T06:30:00+09:00,1
Western LLS Coombah,-32.9786,141.489,5,2024-05-27T04:00:00+09:00,1
"Henderson, Auckland",-36.86,174.62,7,2024-05-27T06:00:00+09:00,1
Churchill,-38.3043137,146.414932,73,2024-05-27T04:00:00+09:00,1
Murray LLS Deniliquin,-35.5575,144.9458,39,2024-05-27T04:00:00+09:00,1
Tamworth North-west Slopes,-31.109909,150.91451,24,2024-05-27T04:00:00+09:00,1
Central West LLS Parkes,-33.1277,148.2439,23,2024-05-27T04:00:00+09:00,1
"Timaru Anzac Square, New Zealand",-44.4041809,171.2487857,86,2024-05-27T04:00:00+09:00,1
George Town,-41.111,146.836,21,2024-05-27T03:00:00+09:00,1
South East LLS Merimbula,-36.907778,149.898889,10,2024-05-27T04:00:00+09:00,1
Maryborough,-25.5159,152.6894,0,2024-05-24T12:00:00+09:00,1
"Leitrim, Fezile Dabi, South Africa",-26.851461,27.875845,82,2024-05-27T04:00:00+09:00,1
North Parramatta Sydney North-west,-33.79944,150.99778,62,2024-05-27T04:00:00+09:00,1
Clinton,-24.0,151.0,0,2024-05-24T12:00:00+09:00,1
"Banjarbaru, Indonesia",-3.4572422,114.8103181,28,2024-05-27T04:00:00+09:00,1
"Pietermaritzburg Airport - ORIBI, uMgungundlovu, South Africa",-29.637583,30.337389,10,2024-05-27T04:00:00+09:00,1
Queenstown,-42.081,145.553,5,2024-05-27T03:00:00+09:00,1
Springwood,-27.6125,153.1359,0,2024-05-24T12:00:00+09:00,1
Duncraig,-31.8341204,115.7835905,5,2024-05-27T00:00:00+09:00,1
"Geraldine, New Zealand",-44.0911852,171.2437353,52,2024-05-27T04:00:00+09:00,1
GeelongSth.,-38.17356,144.3703,46,2024-05-27T04:00:00+09:00,1
"Pakuranga, Auckland",-36.9,174.89,6,2024-05-27T06:00:00+09:00,1
Goulburn Southern Tablelands,-34.73452,149.72416,29,2024-05-27T04:00:00+09:00,1
Riverina LLS Temora,-34.4278,147.5117,13,2024-05-27T04:00:00+09:00,1
"Montravel, New Caledonia",-22.251180555556,166.45448333333,105,2024-05-27T02:00:00+09:00,1
"Bierspruit, Swartklip, South Africa",-24.91039,27.146564,26,2024-05-27T04:00:00+09:00,1
"eMalahleni -MP Province, Nkangala, South Africa",-25.92225,29.24163,19,2024-05-26T23:00:00+09:00,1
"Taupo Gillies Ave, New Zealand",-38.691894931917,176.09117495496,17,2024-05-27T03:00:00+09:00,1
Bathurst Central Tablelands,-33.40192,149.5746,20,2024-05-27T04:00:00+09:00,1
Western LLS Hillston,-33.491,145.5242,30,2024-05-27T04:00:00+09:00,1
Western LLS Ivanhoe,-33.0548,144.154,2,2024-05-27T04:00:00+09:00,1
Spencer Gulf Pt Pirie Oliver St,-33.194818,138.020014,0,2024-05-24T06:30:00+09:00,1
Katherine,-14.465331,132.270787,8,2024-05-27T02:30:00+09:00,1
"Antananarivo US Embassy, Madagascar",-18.908479690552,47.537509918213,68,2024-05-27T04:00:00+09:00,1
"Tokoroa Billah Street, New Zealand",-38.221616742597,175.85843044074,38,2024-05-27T03:00:00+09:00,1
Oakdale Sydney South-west,-34.05169,150.498,50,2024-05-27T04:00:00+09:00,1
Riverina LLS Narrandera,-34.705,146.514,46,2024-05-27T04:00:00+09:00,1
Mallee CMA Walpeup,-35.1202,142.004,13,2024-05-27T03:00:00+09:00,1
Port Macquarie Bushfire Emergency - Port Macquarie,-31.44747,152.87707,14,2024-05-27T04:00:00+09:00,1
Busselton,-33.6499446,115.3446115,11,2024-05-27T04:00:00+09:00,1
"Samarinda, Indonesia",-0.4948232,117.1436154,64,2024-05-27T04:00:00+09:00,1
North Central CMA Loddon Plains,-36.4538,144.3186,26,2024-05-27T04:00:00+09:00,1
Mildura,-34.1635132,142.139374,82,2024-05-27T04:00:00+09:00,1
Western LLS Euston,-34.443,142.889,4,2024-05-27T04:00:00+09:00,1
SA Murray Darling Basin Lameroo,-35.3778,140.5378,10,2024-05-27T04:00:00+09:00,1
Central West LLS Condobolin,-33.0665,147.2283,13,2024-05-27T04:00:00+09:00,1
Southport,-27.9612,153.4024,0,2024-05-24T12:00:00+09:00,1
"Orange Farm, City of Johannesburg, South Africa",-26.479639,27.867111,78,2024-05-27T04:00:00+09:00,1
Mallee CMA Werrimull,-34.4684,141.5728,13,2024-05-27T04:00:00+09:00,1
Rouse Hill Sydney North-west,-33.682778,150.903611,60,2024-05-27T04:00:00+09:00,1
North West LLS Walgett,-30.0359,148.1231,10,2024-05-27T04:00:00+09:00,1
Ayr,-19.5839,147.4059,0,2024-05-24T12:00:00+09:00,1
Coastguard,-19.2526,146.8272,0,2024-05-24T12:00:00+09:00,1
"Talang Betutu Palembang, Indonesia",-2.9419703,104.6688562,80,2024-05-27T04:00:00+09:00,1
"Hammanskraal, City of Tshwane, South Africa",-25.38512,28.254542,32,2024-05-27T04:00:00+09:00,1
Collie,-33.3588705,116.1540412,4,2024-05-27T04:00:00+09:00,1
"Station Blvd Banks, Reunion, France",-21.331666666667,55.478638888889,29,2024-05-27T03:00:00+09:00,1
"Lislet Geoffroy, Reunion, France",-20.889833333333,55.469111111111,13,2024-05-27T03:00:00+09:00,1
"Brackenham - RBCAA, King Cetshwayo, South Africa",-28.787027,32.021848,68,2024-05-26T23:00:00+09:00,1
"Goodwood-NAQI, City of Cape Town, South Africa",-33.9025,18.565194,101,2024-05-27T04:00:00+09:00,1
Moranbah,-21.9995,148.071,0,2024-05-24T12:00:00+09:00,1
"Thames Thames High School, New Zealand",-37.14049055416,175.54629322731,10,2024-05-27T03:00:00+09:00,1
Fingal,-41.638,147.967,13,2024-05-27T03:00:00+09:00,1
Bargo Sydney South-west,-34.30619,150.5805,30,2024-05-27T04:00:00+09:00,1
North West LLS Gunnedah,-30.981667,150.260556,52,2024-05-27T04:00:00+09:00,1
Central West LLS Dubbo,-32.2196,148.5777,23,2024-05-27T04:00:00+09:00,1
Western LLS Tibooburra,-29.4448,142.0568,7,2024-05-27T04:00:00+09:00,1
"Base Vie, New Caledonia",-22.314563888889,166.902925,0,2024-05-26T20:00:00+09:00,1
"Semarang, Indonesia",-6.9903988,110.4229104,154,2024-05-27T04:00:00+09:00,1
"Bengkulu, Indonesia",-3.5186763,102.5359834,119,2024-05-27T04:00:00+09:00,1
"Supadio, Indonesia",-0.36948415,109.51235577106,50,2024-05-27T04:00:00+09:00,1
"Tanjung Harapan, Indonesia",-0.7693212,100.6350004,30,2024-05-27T04:00:00+09:00,1
Albury South-west Slopes,-36.05182,146.9398,69,2024-05-27T04:00:00+09:00,1
Riverina LLS Griffith,-34.2487,146.0695,20,2024-05-27T04:00:00+09:00,1
North Coast LLS Grafton,-29.620556,152.96333,7,2024-05-27T04:00:00+09:00,1
West Mackay,-21.1595,149.1549,0,2024-05-24T12:00:00+09:00,1
"Cibeureum, Indonesia",-6.939897,106.9506175,32,2024-05-27T04:00:00+09:00,1
"Sleman, Indonesia",-7.6894175,110.38129042693,92,2024-05-27T04:00:00+09:00,1
"Taumarunui Air Quality At Taumarunui, New Zealand",-38.886175,175.271046,17,2024-05-27T03:00:00+09:00,1
North West LLS Moree,-29.4897,149.8473,13,2024-05-27T04:00:00+09:00,1
Mutdapilly,-27.7528,152.6509,0,2024-05-24T12:00:00+09:00,1
Quinns Rocks,-31.6724164,115.7076161,3,2024-05-27T04:00:00+09:00,1
"Jambi, Indonesia",-1.6318964,103.6414547,83,2024-05-27T04:00:00+09:00,1
"Settlers-NAQI, eThekwini Metro, South Africa",-29.958742,30.978717,64,2024-05-26T23:00:00+09:00,1
Triabunna,-42.509,147.913,9,2024-05-27T03:00:00+09:00,1
Central Tablelands LLS Cowra,-33.8447,148.65,42,2024-05-27T04:00:00+09:00,1
Bendigo,-36.7784,144.300064,30,2024-05-27T04:00:00+09:00,1
Wyong Central Coast,-33.27896,151.4324,20,2024-05-27T04:00:00+09:00,1
Toowoomba,-27.535158,151.931893,0,2024-05-24T12:00:00+09:00,1
Emerald,-23.5208,148.165,0,2024-05-24T12:00:00+09:00,1
"Ashburton, New Zealand",-43.9083813,171.7485672,70,2024-05-27T04:00:00+09:00,1
"Blenheim Blenheim Bowling Club, New Zealand",-41.52663988,173.95608203,68,2024-05-27T03:00:00+09:00,1
Smithton,-40.85,145.133,34,2024-05-27T03:00:00+09:00,1
Wynyard,-40.992,145.718,21,2024-05-27T03:00:00+09:00,1
Melton,-37.7064552,144.5669,23,2024-05-27T04:00:00+09:00,1
Bushfire Monitoring Coffs Harbour,-30.29828,153.11811,12,2024-05-27T04:00:00+09:00,1
Lower-hunter Mayfield,-32.885055,151.728351,63,2024-05-27T04:00:00+09:00,1
"Grand Fond, Reunion, France",-21.044583333333,55.226713888889,10,2024-05-27T03:00:00+09:00,1
"Olievenhoutbosch-NAQI, City of Tshwane, South Africa",-25.911667,28.092939,276,2024-05-27T04:00:00+09:00,1
"Steelpoort, Sekhukhune, South Africa",-24.731501,30.134383,57,2024-05-26T23:00:00+09:00,1
"Te Kuiti Waitomo District Council, New Zealand",-38.337795515174,175.16533761581,30,2024-05-27T03:00:00+09:00,1
Gretna,-42.684,146.936,13,2024-05-27T03:00:00+09:00,1
Mooroolbark,-37.7749672,145.3285,49,2024-05-27T04:00:00+09:00,1
North Central CMA Wycheproof,-36.0971,143.3548,26,2024-05-27T04:00:00+09:00,1
North Coast LLS Lismore,-28.824444,153.256667,4,2024-05-27T04:00:00+09:00,1
"Pesawaran, Indonesia",-5.4559573,105.08469101016,110,2024-05-27T04:00:00+09:00,1
"Columbus, Alfred Nzo, South Africa",-25.809675,29.505702,65,2024-05-27T04:00:00+09:00,1
Hobart,-42.855,147.315,30,2024-05-27T03:00:00+09:00,1
Bright,-36.73228,146.9702,57,2024-05-27T04:00:00+09:00,1
Upper-hunter Merriwa,-32.125777,150.459299,16,2024-05-27T04:00:00+09:00,1
Narrabri North-west Slopes,-30.31842,149.82932,3,2024-05-27T04:00:00+09:00,1
"ES_Motherwell, Alfred Nzo, South Africa",-33.789662,25.618592,27,2024-05-27T03:00:00+09:00,1
"CBD RBCAA-NAQI, King Cetshwayo, South Africa",-28.7447,32.049242,63,2024-05-26T23:00:00+09:00,1
"Saldanha IDZ, West Coast, South Africa",-32.98312,17.98497,12,2024-05-27T04:00:00+09:00,1
"Mhluzi, Nkangala, South Africa",-25.74982,29.446818,2,2024-05-26T23:00:00+09:00,1
"Nelson South Nelson At St Vincent St, New Zealand",-41.27822953,173.27352648,21,2024-05-27T03:00:00+09:00,1
South East LLS Cooma,-36.2225,149.1335,26,2024-05-27T04:00:00+09:00,1
Murray LLS Kyalite,-35.0368,143.4895,13,2024-05-27T04:00:00+09:00,1
"Lore Lindu, Indonesia",-1.5190466,120.18524658954,57,2024-05-27T01:00:00+09:00,1
"Kototabang, Indonesia",-0.2028171,100.315808,20,2024-05-27T04:00:00+09:00,1
"Hambanathi Tongaat, eThekwini Metro, South Africa",-29.557419444444,31.120063888889,0,2024-05-24T15:00:00+09:00,1
"Ermelo-NAQI, Gert Sibande, South Africa",-26.493348,29.968054,0,2024-05-26T07:00:00+09:00,1
"North Farm, Polokwane, South Africa",-24.017956,29.475521,144,2024-05-27T04:00:00+09:00,1
"Richmond Plunket AQ, New Zealand",-41.3395984,173.18316353,42,2024-05-27T03:00:00+09:00,1
Riverina LLS Hay,-34.5348,144.8291,13,2024-05-27T04:00:00+09:00,1
North Maclean,-27.7708,153.03,0,2024-05-24T12:00:00+09:00,1
Winnellie,-12.424323299931,130.89335024357,77,2024-05-27T03:30:00+09:00,1
"Jakarta, Indonesia",-6.1603721,106.8473377,138,2024-05-27T04:00:00+09:00,1
"Morrinsville Morrinsville College, New Zealand",-37.649612622395,175.53579672352,13,2024-05-27T03:00:00+09:00,1
"Monash, Canberra",-35.418302,149.094018,102,2024-05-27T04:00:00+09:00,1
Richmond Sydney North-west,-33.61644,150.7473,49,2024-05-27T04:00:00+09:00,1
Armidale Northern Tablelands,-30.50851,151.66173,26,2024-05-27T04:00:00+09:00,1
"Kawéni Village, Mayotte, France",-12.772944,45.223206,17,2024-05-27T02:00:00+09:00,1
Wangaratta,-36.36926,146.3133,61,2024-05-27T04:00:00+09:00,1
Wagga Wagga Nth South-west Slopes,-35.104407,147.360512,84,2024-05-27T04:00:00+09:00,1
Lower-hunter Stockton,-32.901973,151.784274,69,2024-05-27T04:00:00+09:00,1
Cairns,-16.96162,145.7436,0,2024-05-24T12:00:00+09:00,1
Albany,-35.0238227,117.8847286,8,2024-05-27T04:00:00+09:00,1
"Worcester-NAQI, Cape Winelands, South Africa",-33.627489,19.468318,26,2024-05-26T23:00:00+09:00,1
"Invercargill Invercargill At Pomona Street, New Zealand",-46.431928390214,168.36991681188,9,2024-05-27T03:00:00+09:00,1
"Gore Gore At Main Street, New Zealand",-46.10620888899,168.9396792352,9,2024-05-27T03:00:00+09:00,1
"CBD RBCAA-NAQI, King Cetshwayo, South Africa",-28.7447,32.049242,63,2024-05-26T23:00:00+09:00,1
"Ermelo-NAQI, Gert Sibande, South Africa",-26.493348,29.968054,0,2024-05-26T07:00:00+09:00,1
"North Farm, Polokwane, South Africa",-24.017956,29.475521,144,2024-05-27T04:00:00+09:00,1
"Goodwood-NAQI, City of Cape Town, South Africa",-33.9025,18.565194,101,2024-05-27T04:00:00+09:00,1
"Grand Fond, Reunion, France",-21.044583333333,55.226713888889,10,2024-05-27T03:00:00+09:00,1
"Olievenhoutbosch-NAQI, City of Tshwane, South Africa",-25.911667,28.092939,276,2024-05-27T04:00:00+09:00,1
"Steelpoort, Sekhukhune, South Africa",-24.731501,30.134383,57,2024-05-26T23:00:00+09:00,1
"Orange Farm, City of Johannesburg, South Africa",-26.479639,27.867111,78,2024-05-27T04:00:00+09:00,1
"Mafikeng-NAQI, Ngaka Modiri Molema, South Africa",-25.835814,25.614534,184,2024-05-27T04:00:00+09:00,1
"Hermanus, Overberg, South Africa",-34.213,19.213,20,2024-05-27T04:00:00+09:00,1
"Worcester-NAQI, Cape Winelands, South Africa",-33.627489,19.468318,26,2024-05-26T23:00:00+09:00,1
"Station Blvd Banks, Reunion, France",-21.331666666667,55.478638888889,29,2024-05-27T03:00:00+09:00,1
"Damonsville, Bojanala Platinum, South Africa",-25.625702,27.851825,181,2024-05-27T04:00:00+09:00,1
"Kawéni Village, Mayotte, France",-12.772944,45.223206,17,2024-05-27T02:00:00+09:00,1
"Settlers-NAQI, eThekwini Metro, South Africa",-29.958742,30.978717,64,2024-05-26T23:00:00+09:00,1
"Brackenham - RBCAA, King Cetshwayo, South Africa",-28.787027,32.021848,68,2024-05-26T23:00:00+09:00,1
"Marikana CC-NAQI, Bojanala Platinum, South Africa",-25.698444,27.480111,80,2024-05-27T04:00:00+09:00,1
"Eskom-Medupi, Waterberg, South Africa",-23.738521,27.540346,0,2024-05-25T07:00:00+09:00,1
"Bierspruit, Swartklip, South Africa",-24.91039,27.146564,26,2024-05-27T04:00:00+09:00,1
"Lislet Geoffroy, Reunion, France",-20.889833333333,55.469111111111,13,2024-05-27T03:00:00+09:00,1
"Antananarivo US Embassy, Madagascar",-18.908479690552,47.537509918213,68,2024-05-27T04:00:00+09:00,1
"Mhluzi, Nkangala, South Africa",-25.74982,29.446818,2,2024-05-26T23:00:00+09:00,1
"Hammanskraal, City of Tshwane, South Africa",-25.38512,28.254542,32,2024-05-27T04:00:00+09:00,1
"eMalahleni -MP Province, Nkangala, South Africa",-25.92225,29.24163,19,2024-05-26T23:00:00+09:00,1
"Saldanha IDZ, West Coast, South Africa",-32.98312,17.98497,12,2024-05-27T04:00:00+09:00,1
"Pietermaritzburg Airport - ORIBI, uMgungundlovu, South Africa",-29.637583,30.337389,10,2024-05-27T04:00:00+09:00,1
"Columbus, Alfred Nzo, South Africa",-25.809675,29.505702,65,2024-05-27T04:00:00+09:00,1
"Leitrim, Fezile Dabi, South Africa",-26.851461,27.875845,82,2024-05-27T04:00:00+09:00,1
"Eskom-Gourikwa, Mossel Bay, South Africa",-34.179158,22.097439,1,2024-05-27T04:00:00+09:00,1
"Hambanathi Tongaat, eThekwini Metro, South Africa",-29.557419444444,31.120063888889,0,2024-05-24T15:00:00+09:00,1
"ES_Motherwell, Alfred Nzo, South Africa",-33.789662,25.618592,27,2024-05-27T03:00:00+09:00,1
"Secunda, Gert Sibande, South Africa",-26.550639,29.079028,151,2024-05-27T04:00:00+09:00,1
Moranbah,-21.9995,148.071,0,2024-05-24T12:00:00+09:00,1
"Kaiapoi, New Zealand",-43.3830321,172.6569578,96,2024-05-27T04:00:00+09:00,1
"Geraldine, New Zealand",-44.0911852,171.2437353,52,2024-05-27T04:00:00+09:00,1
Maryborough,-25.5159,152.6894,0,2024-05-24T12:00:00+09:00,1
Boyne Island,-23.9408,151.3507,0,2024-05-24T12:00:00+09:00,1
SA Murray Darling Basin Lameroo,-35.3778,140.5378,10,2024-05-27T04:00:00+09:00,1
"Cibeureum, Indonesia",-6.939897,106.9506175,32,2024-05-27T04:00:00+09:00,1
"Jambi, Indonesia",-1.6318964,103.6414547,83,2024-05-27T04:00:00+09:00,1
"Talang Betutu Palembang, Indonesia",-2.9419703,104.6688562,80,2024-05-27T04:00:00+09:00,1
"Hastings St Johns, New Zealand",-39.638873262,176.85880199271,25,2024-05-27T03:00:00+09:00,1
S. Launceston,-41.465,147.148,70,2024-05-27T03:00:00+09:00,1
Devonport,-41.185,146.345,50,2024-05-27T03:00:00+09:00,1
Murray LLS Kyalite,-35.0368,143.4895,13,2024-05-27T04:00:00+09:00,1
Ayr,-19.5839,147.4059,0,2024-05-24T12:00:00+09:00,1
The Gap,-20.7264,139.4977,0,2024-05-24T12:00:00+09:00,1
Mandurah,-32.5361,115.7424,6,2024-05-27T04:00:00+09:00,1
Swan Hill,-35.34314,143.534088,126,2024-05-27T04:00:00+09:00,1
Western LLS Euston,-34.443,142.889,4,2024-05-27T04:00:00+09:00,1
Narrabri North-west Slopes,-30.31842,149.82932,3,2024-05-27T04:00:00+09:00,1
Spencer Gulf Whyalla,-33.0343994,137.5849148,0,2024-05-24T06:30:00+09:00,1
Riverina LLS Hay,-34.5348,144.8291,13,2024-05-27T04:00:00+09:00,1
Northern Adelaide (Elizabeth),-34.698472,138.695751,0,2024-05-24T06:30:00+09:00,1
Rouse Hill Sydney North-west,-33.682778,150.903611,60,2024-05-27T04:00:00+09:00,1
Bathurst Central Tablelands,-33.40192,149.5746,20,2024-05-27T04:00:00+09:00,1
"Taupo Gillies Ave, New Zealand",-38.691894931917,176.09117495496,17,2024-05-27T03:00:00+09:00,1
"Hamilton Claudelands, New Zealand",-37.777543176927,175.28715904723,21,2024-05-27T03:00:00+09:00,1
Oatlands,-42.3,147.372,13,2024-05-27T03:00:00+09:00,1
Oakdale Sydney South-west,-34.05169,150.498,50,2024-05-27T04:00:00+09:00,1
Central West LLS Parkes,-33.1277,148.2439,23,2024-05-27T04:00:00+09:00,1
Mountain Creek,-26.6917,153.1038,0,2024-05-24T12:00:00+09:00,1
W. Ulverstone,-41.159,146.146,30,2024-05-27T03:00:00+09:00,1
North Central CMA Wycheproof,-36.0971,143.3548,26,2024-05-27T04:00:00+09:00,1
Lower-hunter Stockton,-32.901973,151.784274,69,2024-05-27T04:00:00+09:00,1
Riverina LLS Narrandera,-34.705,146.514,46,2024-05-27T04:00:00+09:00,1
Riverina LLS Temora,-34.4278,147.5117,13,2024-05-27T04:00:00+09:00,1
North Maclean,-27.7708,153.03,0,2024-05-24T12:00:00+09:00,1
Western LLS Ivanhoe,-33.0548,144.154,2,2024-05-27T04:00:00+09:00,1
"Blenheim Blenheim Bowling Club, New Zealand",-41.52663988,173.95608203,68,2024-05-27T03:00:00+09:00,1
Hobart,-42.855,147.315,30,2024-05-27T03:00:00+09:00,1
Morwell Sth.,-38.2392921,146.3873,102,2024-05-27T04:00:00+09:00,1
Goulburn Southern Tablelands,-34.73452,149.72416,29,2024-05-27T04:00:00+09:00,1
"Banjarbaru, Indonesia",-3.4572422,114.8103181,28,2024-05-27T04:00:00+09:00,1
Deloraine,-41.523,146.658,30,2024-05-27T03:00:00+09:00,1
George Town,-41.111,146.836,21,2024-05-27T03:00:00+09:00,1
Wyong Central Coast,-33.27896,151.4324,20,2024-05-27T04:00:00+09:00,1
"Jakarta, Indonesia",-6.1603721,106.8473377,138,2024-05-27T04:00:00+09:00,1
Western LLS Bourke,-30.0362,145.9521,4,2024-05-27T04:00:00+09:00,1
Bendigo,-36.7784,144.300064,30,2024-05-27T04:00:00+09:00,1
North Coast LLS Lismore,-28.824444,153.256667,4,2024-05-27T04:00:00+09:00,1
Orange Central Tablelands,-33.27429,149.09447,54,2024-05-27T04:00:00+09:00,1
Southport,-27.9612,153.4024,0,2024-05-24T12:00:00+09:00,1
Queenstown,-42.081,145.553,5,2024-05-27T03:00:00+09:00,1
GeelongSth.,-38.17356,144.3703,46,2024-05-27T04:00:00+09:00,1
North Central CMA Loddon Plains,-36.4538,144.3186,26,2024-05-27T04:00:00+09:00,1
"Kotabaru, Indonesia",-2.79510965,115.97125475604,14,2024-05-27T04:00:00+09:00,1
"Thames Thames High School, New Zealand",-37.14049055416,175.54629322731,10,2024-05-27T03:00:00+09:00,1
New Norfolk,-42.776,147.054,34,2024-05-27T03:00:00+09:00,1
Wagga Wagga Nth South-west Slopes,-35.104407,147.360512,84,2024-05-27T04:00:00+09:00,1
Central Tablelands LLS Cowra,-33.8447,148.65,42,2024-05-27T04:00:00+09:00,1
"Samarinda, Indonesia",-0.4948232,117.1436154,64,2024-05-27T04:00:00+09:00,1
Murray LLS Deniliquin,-35.5575,144.9458,39,2024-05-27T04:00:00+09:00,1
North West LLS Gunnedah,-30.981667,150.260556,52,2024-05-27T04:00:00+09:00,1
North West LLS Walgett,-30.0359,148.1231,10,2024-05-27T04:00:00+09:00,1
"Montravel, New Caledonia",-22.251180555556,166.45448333333,105,2024-05-27T02:00:00+09:00,1
Quinns Rocks,-31.6724164,115.7076161,3,2024-05-27T04:00:00+09:00,1
"Taihape Air Quality At Taihape, New Zealand",-39.6778,175.80084,17,2024-05-27T03:00:00+09:00,1
"Tokoroa Billah Street, New Zealand",-38.221616742597,175.85843044074,38,2024-05-27T03:00:00+09:00,1
Richmond Sydney North-west,-33.61644,150.7473,49,2024-05-27T04:00:00+09:00,1
Western LLS Pooncarie,-33.6016,142.5308,0,2024-05-26T19:00:00+09:00,1
"Florey, Canberra",-35.220606,149.043539,104,2024-05-27T04:00:00+09:00,1
Macleod,-37.722477,145.0576,61,2024-05-27T04:00:00+09:00,1
Upper-hunter Camberwell,-32.472333,151.091803,19,2024-05-27T04:00:00+09:00,1
Upper-hunter Merriwa,-32.125777,150.459299,16,2024-05-27T04:00:00+09:00,1
"Timaru Anzac Square, New Zealand",-44.4041809,171.2487857,86,2024-05-27T04:00:00+09:00,1
"Monash, Canberra",-35.418302,149.094018,102,2024-05-27T04:00:00+09:00,1
Kembla Grange Illawarra,-34.47442,150.8192,48,2024-05-27T04:00:00+09:00,1
Albury South-west Slopes,-36.05182,146.9398,69,2024-05-27T04:00:00+09:00,1
Mutdapilly,-27.7528,152.6509,0,2024-05-24T12:00:00+09:00,1
Rosedale,-38.15588,146.7842,57,2024-05-27T04:00:00+09:00,1
Mooroolbark,-37.7749672,145.3285,49,2024-05-27T04:00:00+09:00,1
Western LLS Hillston,-33.491,145.5242,30,2024-05-27T04:00:00+09:00,1
"Sleman, Indonesia",-7.6894175,110.38129042693,92,2024-05-27T04:00:00+09:00,1
North Parramatta Sydney North-west,-33.79944,150.99778,62,2024-05-27T04:00:00+09:00,1
Mallee CMA Werrimull,-34.4684,141.5728,13,2024-05-27T04:00:00+09:00,1
"Logicoop, New Caledonia",-22.235411111111,166.43382777778,62,2024-05-27T01:00:00+09:00,1
Geraldton,-28.7732192,114.6096326,4,2024-05-27T04:00:00+09:00,1
Port Macquarie Bushfire Emergency - Port Macquarie,-31.44747,152.87707,14,2024-05-27T04:00:00+09:00,1
North West LLS Moree,-29.4897,149.8473,13,2024-05-27T04:00:00+09:00,1
Bargo Sydney South-west,-34.30619,150.5805,30,2024-05-27T04:00:00+09:00,1
Riverina LLS Griffith,-34.2487,146.0695,20,2024-05-27T04:00:00+09:00,1
Toowoomba,-27.535158,151.931893,0,2024-05-24T12:00:00+09:00,1
"Tanjung Harapan, Indonesia",-0.7693212,100.6350004,30,2024-05-27T04:00:00+09:00,1
Murray LLS Rand,-35.6296,146.4752,54,2024-05-27T04:00:00+09:00,1
Kalgoorlie,-30.749,121.466,6,2024-05-27T04:00:00+09:00,1
Collie,-33.3588705,116.1540412,4,2024-05-27T04:00:00+09:00,1
Western LLS Coombah,-32.9786,141.489,5,2024-05-27T04:00:00+09:00,1
Western LLS Tibooburra,-29.4448,142.0568,7,2024-05-27T04:00:00+09:00,1
"Richmond Plunket AQ, New Zealand",-41.3395984,173.18316353,42,2024-05-27T03:00:00+09:00,1
Triabunna,-42.509,147.913,9,2024-05-27T03:00:00+09:00,1
Lower-hunter Mayfield,-32.885055,151.728351,63,2024-05-27T04:00:00+09:00,1
Clinton,-24.0,151.0,0,2024-05-24T12:00:00+09:00,1
"Bengkulu, Indonesia",-3.5186763,102.5359834,119,2024-05-27T04:00:00+09:00,1
"Henderson, Auckland",-36.86,174.62,7,2024-05-27T06:00:00+09:00,1
Central West LLS Condobolin,-33.0665,147.2283,13,2024-05-27T04:00:00+09:00,1
Spencer Gulf Pt Pirie Oliver St,-33.194818,138.020014,0,2024-05-24T06:30:00+09:00,1
Duncraig,-31.8341204,115.7835905,5,2024-05-27T00:00:00+09:00,1
Campbell Town,-41.928,147.491,13,2024-05-27T03:00:00+09:00,1
Melbourne CBD,-37.8073959,144.97,73,2024-05-27T04:00:00+09:00,1
Cairns,-16.96162,145.7436,0,2024-05-24T12:00:00+09:00,1
"Pangkalanbun, Indonesia",-2.676583,111.626448,54,2024-05-27T04:00:00+09:00,1
Churchill,-38.3043137,146.414932,73,2024-05-27T04:00:00+09:00,1
South East LLS Cooma,-36.2225,149.1335,26,2024-05-27T04:00:00+09:00,1
Emerald,-23.5208,148.165,0,2024-05-24T12:00:00+09:00,1
"Maros, Indonesia",-4.9655024,119.69284341781,54,2024-05-27T04:00:00+09:00,1
"Ashburton, New Zealand",-43.9083813,171.7485672,70,2024-05-27T04:00:00+09:00,1
Blackwater,-23.5627,148.8807,0,2024-05-24T12:00:00+09:00,1
"Supadio, Indonesia",-0.36948415,109.51235577106,50,2024-05-27T04:00:00+09:00,1
"Te Kuiti Waitomo District Council, New Zealand",-38.337795515174,175.16533761581,30,2024-05-27T03:00:00+09:00,1
Mildura,-34.1635132,142.139374,82,2024-05-27T04:00:00+09:00,1
Adelaide CBD,-34.928853,138.600943,0,2024-05-24T06:30:00+09:00,1
Melton,-37.7064552,144.5669,23,2024-05-27T04:00:00+09:00,1
Springwood,-27.6125,153.1359,0,2024-05-24T12:00:00+09:00,1
"Morrinsville Morrinsville College, New Zealand",-37.649612622395,175.53579672352,13,2024-05-27T03:00:00+09:00,1
"Pakuranga, Auckland",-36.9,174.89,6,2024-05-27T06:00:00+09:00,1
"Pesawaran, Indonesia",-5.4559573,105.08469101016,110,2024-05-27T04:00:00+09:00,1
Bream Creek,-42.819,147.817,9,2024-05-27T03:00:00+09:00,1
North Coast LLS Grafton,-29.620556,152.96333,7,2024-05-27T04:00:00+09:00,1
Western LLS White Cliffs,-30.8517,143.0742,4,2024-05-27T04:00:00+09:00,1
"Malang, Indonesia",-7.9551897,112.6119383,124,2024-05-27T04:00:00+09:00,1
Central West LLS Dubbo,-32.2196,148.5777,23,2024-05-27T04:00:00+09:00,1
"Base Vie, New Caledonia",-22.314563888889,166.902925,0,2024-05-26T20:00:00+09:00,1
"Palangka Raya, Indonesia",-2.21,113.92,60,2024-05-27T04:00:00+09:00,1
South East LLS Merimbula,-36.907778,149.898889,10,2024-05-27T04:00:00+09:00,1
Wangaratta,-36.36926,146.3133,61,2024-05-27T04:00:00+09:00,1
Smithton,-40.85,145.133,34,2024-05-27T03:00:00+09:00,1
Wynyard,-40.992,145.718,21,2024-05-27T03:00:00+09:00,1
Mallee CMA Walpeup,-35.1202,142.004,13,2024-05-27T03:00:00+09:00,1
Bushfire Monitoring Coffs Harbour,-30.29828,153.11811,12,2024-05-27T04:00:00+09:00,1
Armidale Northern Tablelands,-30.50851,151.66173,26,2024-05-27T04:00:00+09:00,1
West Mackay,-21.1595,149.1549,0,2024-05-24T12:00:00+09:00,1
"Semarang, Indonesia",-6.9903988,110.4229104,154,2024-05-27T04:00:00+09:00,1
"Kototabang, Indonesia",-0.2028171,100.315808,20,2024-05-27T04:00:00+09:00,1
Scottsdale,-41.162,147.515,13,2024-05-27T03:00:00+09:00,1
Western LLS Cobar,-31.4837,145.8293,26,2024-05-27T04:00:00+09:00,1
Albany,-35.0238227,117.8847286,8,2024-05-27T04:00:00+09:00,1
"Lore Lindu, Indonesia",-1.5190466,120.18524658954,57,2024-05-27T01:00:00+09:00,1
Fingal,-41.638,147.967,13,2024-05-27T03:00:00+09:00,1
Bright,-36.73228,146.9702,57,2024-05-27T04:00:00+09:00,1
Coastguard,-19.2526,146.8272,0,2024-05-24T12:00:00+09:00,1
Busselton,-33.6499446,115.3446115,11,2024-05-27T04:00:00+09:00,1
Winnellie,-12.424323299931,130.89335024357,77,2024-05-27T03:30:00+09:00,1
Katherine,-14.465331,132.270787,8,2024-05-27T02:30:00+09:00,1
"Nelson South Nelson At St Vincent St, New Zealand",-41.27822953,173.27352648,21,2024-05-27T03:00:00+09:00,1
"Taumarunui Air Quality At Taumarunui, New Zealand",-38.886175,175.271046,17,2024-05-27T03:00:00+09:00,1
Gretna,-42.684,146.936,13,2024-05-27T03:00:00+09:00,1
Tamworth North-west Slopes,-31.109909,150.91451,24,2024-05-27T04:00:00+09:00,1
"Fingoy, Lugo, Galicia, Spain",42.997922,-7.550728,28,2024-05-27T03:00:00+09:00,1
"Lakeville - Near Road, Minnesota, USA",44.706123,-93.285803,17,2024-05-27T04:00:00+09:00,1
"Lebec, Kern, California",34.84155,-118.86058,17,2024-05-27T03:00:00+09:00,1
"Fundão, Fundão, Portugal",40.233055555556,-7.3019444444444,40,2024-05-27T02:00:00+09:00,1
"CCRI Providence, Rhode Island, USA",41.807523,-71.41392,55,2024-05-27T04:00:00+09:00,1
"Padonia, Maryland, USA",39.462002,-76.631599,51,2024-05-27T04:00:00+09:00,1
"Reading Airport, Pennsylvania, USA",40.3833,-75.9686,45,2024-05-27T02:00:00+09:00,1
"Towanda, Pennsylvania, USA",41.705226,-76.512726,35,2024-05-27T02:00:00+09:00,1
"Green Bay E High, Wisconsin, USA",44.50729,-87.99344,26,2024-05-27T04:00:00+09:00,1
"Emmetsburg, Iowa, USA",43.123704,-94.693518,38,2024-05-27T03:00:00+09:00,1
"Marigot, Saint-Martin, France",18.070114,-63.081481,8,2024-05-27T02:00:00+09:00,1
"Campolongo, Pontevedra, Galicia, Spain",42.425931,-8.644105,20,2024-05-27T03:00:00+09:00,1
"Columbus NR - Smoky Row, Ohio, USA",40.11109,-83.065376,47,2024-05-27T04:00:00+09:00,1
"El Ejido, Spain",36.76972165638,-2.8109670767557,35,2024-05-27T03:00:00+09:00,1
"Valderas, León, Spain",42.079722222222,-5.4488888888889,38,2024-05-27T02:00:00+09:00,1
"Madras, Oregon, USA",44.63062,-121.13165,10,2024-05-27T03:00:00+09:00,1
"Las Fuentes, Zaragoza, Spain",41.640277777778,-0.86305555555556,51,2024-05-27T03:00:00+09:00,1
"Campillos, Spain",36.962296779939,-4.8448338002702,67,2024-05-27T03:00:00+09:00,1
"Soria, Spain",41.766666666667,-2.466666666667,33,2024-05-27T02:00:00+09:00,1
"Reinosa, Cantabria, Spain",42.9995287,-4.1392622,32,2024-05-27T02:00:00+09:00,1
"Cannons Lane, Kentucky, USA",38.2286,-85.6544,48,2024-05-27T04:00:00+09:00,1
"Austin Northwest, Austin, Texas",30.3544356,-97.7602554,112,2024-05-27T03:00:00+09:00,1
"Del Norte, New Mexico, USA",35.1353,-106.584702,46,2024-05-27T02:00:00+09:00,1
"Aljorra Litoral, Murcia, Spain",37.694224,-1.0646264760337,48,2024-05-27T04:00:00+09:00,1
"Grand Bend, Ontario, Canada",43.333083,-81.742889,41,2024-05-27T05:00:00+09:00,1
"KNI-Topeka, Kansas, USA",39.0242,-95.7114,43,2024-05-27T04:00:00+09:00,1
"Cedar Bluff, Kansas, USA",38.7703,-99.7636,40,2024-05-27T04:00:00+09:00,1
"Tranquility, Fresno, California",36.63434,-120.38234,32,2024-05-27T03:00:00+09:00,1
"Grants Pass, Oregon, USA",42.434149,-123.348466,17,2024-05-27T03:00:00+09:00,1
"Medina de Pomar, Burgos, Spain",42.9525,-3.475277777778,29,2024-05-27T02:00:00+09:00,1
"Macon, Georgia, USA",32.805408,-83.543521,59,2024-05-27T02:00:00+09:00,1
"Thousand Oaks-Moorpark Road, Ventura, California",34.21014,-118.8705,38,2024-05-27T03:00:00+09:00,1
"Rabassa, Alacant, Valencia, Spain",38.351111111111,-0.51388888888889,41,2024-05-27T02:00:00+09:00,1
"Newtwn, Kentucky, USA",38.065,-84.5,42,2024-05-27T04:00:00+09:00,1
"Centro de Salud, Atitalaquia, Hidalgo, Mexico",20.06,-99.221944444444,121,2024-05-27T03:00:00+09:00,1
"Clinton, Houston, Texas",29.7337263,-95.2575931,91,2024-05-27T04:00:00+09:00,1
"San Jose-Knox Avenue, Santa Clara, California",37.338202,-121.849892,50,2024-05-27T03:00:00+09:00,1
"Portsmouth, New Hampshire, USA",43.075371,-70.748017,30,2024-05-27T04:00:00+09:00,1
"Kona, Hawaii, USA",19.50977778,-155.9134167,34,2024-05-27T04:00:00+09:00,1
"Palmones, Los Barrios, Spain",36.174707365012,-5.4327672046071,59,2024-05-27T02:00:00+09:00,1
"Salem, Oregon, USA",44.943114,-123.005934,12,2024-05-27T03:00:00+09:00,1
"Norristown, Pennsylvania, USA",40.1122,-75.3092,53,2024-05-27T02:00:00+09:00,1
"Texarkana New Boston, Bowie, Texas",33.436111,-94.07778,86,2024-05-27T03:00:00+09:00,1
"Hernando, Mississippi, USA",34.8275,-89.9889,56,2024-05-27T04:00:00+09:00,1
"Port of Spain, Trinidad and Tobago",10.6425559,-61.4940554,19,2024-05-27T03:00:00+09:00,1
"Spruce Pine, North Carolina, USA",35.912487,-82.062082,9,2024-05-27T04:00:00+09:00,1
"Jeffersonville - Bates-Bowyer Av, Indiana, USA",38.288191,-85.741337,30,2024-05-27T04:00:00+09:00,1
"Viking Lake, Iowa, USA",40.970001,-95.044998,46,2024-05-27T03:00:00+09:00,1
"Medano, Canarias, Spain",28.047324107319,-16.536030555556,50,2024-05-27T02:00:00+09:00,1
"Albany, Georgia, USA",31.576917,-84.100194,52,2024-05-27T02:00:00+09:00,1
"Monroe Airport site, Louisiana, USA",32.509789,-92.04605,25,2024-05-27T03:00:00+09:00,1
"Chancy Park, Clinton, Iowa, USA",41.823101,-90.211899,32,2024-05-27T03:00:00+09:00,1
"Clovis-N Villa Avenue, Fresno, California",36.81931,-119.71639,33,2024-05-27T03:00:00+09:00,1
"Palomares, Cuevas Del Almanzora, Spain",37.254970040987,-1.7817306208919,42,2024-05-27T03:00:00+09:00,1
"Terena, Alandroal, Portugal",38.615,-7.3975,34,2024-05-27T02:00:00+09:00,1
"Princess Anne, Maryland, USA",38.176541,-75.701489,38,2024-05-27T04:00:00+09:00,1
"Utica, New York, USA",43.098908,-75.22507,5,2024-05-27T02:00:00+09:00,1
"Peterborough, Ontario, Canada",44.301917,-78.346222,42,2024-05-27T05:00:00+09:00,1
"Chippewa Lake, Ohio, USA",41.0604,-81.9239,42,2024-05-27T04:00:00+09:00,1
"Colorado College, Colorado, USA",38.848014,-104.828564,9,2024-05-27T03:00:00+09:00,1
"Red Bluff - Walnut St, Tehama, California",40.17088,-122.25556,23,2024-05-27T03:00:00+09:00,1
"MatalascaÑas, Almonte, Spain",37.016101910318,-6.5704204604074,29,2024-05-27T02:00:00+09:00,1
"Shady Cove, Oregon, USA",42.623225,-122.810158,13,2024-05-27T03:00:00+09:00,1
"Funes, Navarra, Spain",42.3145417,-1.801367,29,2024-05-27T02:00:00+09:00,1
"Cape Romain, South Carolina, USA",32.941002,-79.656998,37,2024-05-27T04:00:00+09:00,1
"Biblioteca, San Luis Potosí, Mexico",22.174222222222,-100.99308333333,52,2024-05-27T04:00:00+09:00,1
"Muriel de la Fuente, Soria, Spain",41.723611111111,-2.8569444444444,30,2024-05-27T02:00:00+09:00,1
"PM2.5, Grand Jct. Powell, Colorado, USA",39.063798,-108.561173,9,2024-05-27T03:00:00+09:00,1
"Hollister-Fairview Road, San Benito, California",36.84343,-121.3621,42,2024-05-27T03:00:00+09:00,1
"Mª Diaz Haro, Bilbao, País Vasco, Spain",43.258802866392,-2.9456566641758,30,2024-05-27T01:00:00+09:00,1
"Friendship Park, North Carolina, USA",35.281791,-80.851473,38,2024-05-27T04:00:00+09:00,1
"Haws Athletic Center, fort Worth, Dallas, Texas",32.7591432,-97.3423337,86,2024-05-27T03:00:00+09:00,1
"Taos Fire Station, New Mexico, USA",36.38333,-105.58333,5,2024-05-27T02:00:00+09:00,1
"Goleta-Fairview, Santa Barbara, California",34.44551,-119.82845,53,2024-05-27T03:00:00+09:00,1
"Madera - Pump Yard, Madera, California",36.86719,-120.01011,33,2024-05-27T03:00:00+09:00,1
"San Lorenzo Valley Middle School, Santa Cruz, California",37.06315,-122.08309,30,2024-05-27T03:00:00+09:00,1
"Ketchum, Idaho, USA",43.682489,-114.371231,21,2024-05-27T03:00:00+09:00,1
"Camden Spruce St, NewJersey, USA",39.934635,-75.126126,54,2024-05-27T04:00:00+09:00,1
"Horn Point, Maryland, USA",38.5876,-76.1408,28,2024-05-27T04:00:00+09:00,1
"Harrisonburg VDOT, Harrisonburg, USA",38.47753,-78.81952,27,2024-05-27T03:00:00+09:00,1
"Holbrook, Pennsylvania, USA",39.8553545,-80.3136803,43,2024-05-27T02:00:00+09:00,1
"Gallup, USA",35.5365,-108.7272,5,2024-05-27T03:00:00+09:00,1
"Lake Gregory (Crestline), San Bernardino",34.24313,-117.2723,42,2024-05-27T03:00:00+09:00,1
"Ocean View, Hawaii, USA",19.117561,-155.77813,5,2024-05-27T01:00:00+09:00,1
"Bonifay Tri-County Airport, Holmes, Florida, USA",30.848611111111,-85.603888888889,34,2024-05-27T04:00:00+09:00,1
"Cee, Galicia, Spain",42.953652,-9.186098,37,2024-05-27T03:00:00+09:00,1
"Duchesne, Utah",40.1632913,-110.4029329,40,2024-05-27T04:00:00+09:00,1
"Box Elder, Utah",41.492802,-112.0187,38,2024-05-27T04:00:00+09:00,1
"Arcos, Arcos De La Frontera, Spain",36.739750554876,-5.7437226577647,0,2024-05-23T22:00:00+09:00,1
"Lubbock 12th Street, Lubbock, Texas",33.58553,-101.78698,21,2024-05-27T03:00:00+09:00,1
"Baytown, Houston, Texas",29.7706975,-95.0312316,95,2024-05-27T03:00:00+09:00,1
"Columbus Airport, Georgia, USA",32.521302,-84.944795,41,2024-05-27T02:00:00+09:00,1
"Laconia, New Hampshire, USA",43.566122,-71.496335,16,2024-05-27T04:00:00+09:00,1
"Oshawa, Ontario, Canada",43.945944,-78.894917,46,2024-05-27T05:00:00+09:00,1
"Davis, Utah",40.9628845,-112.0953297,40,2024-05-27T04:00:00+09:00,1
"McDonough, Georgia, USA",33.433575,-84.161708,51,2024-05-27T02:00:00+09:00,1
"Keene, New Hampshire, USA",42.930521,-72.272332,42,2024-05-27T04:00:00+09:00,1
"Batavia, Ohio, USA",39.0828,-84.1441,38,2024-05-27T04:00:00+09:00,1
"Houston, Illinois, USA",38.1761,-89.7883,41,2024-05-27T04:00:00+09:00,1
"Kittanning, Pennsylvania, USA",40.8142,-79.565,42,2024-05-27T02:00:00+09:00,1
"Hammond-167th St, Indiana, USA",41.594427,-87.495044,52,2024-05-27T03:00:00+09:00,1
"Tlaquepaque, Guadalajara, Mexico",20.641445843732,-103.31262961377,59,2024-05-27T03:00:00+09:00,1
"Widewater Elem. School - Widewater, Fredericksburg, USA",38.48123,-77.3704,38,2024-05-27T03:00:00+09:00,1
"Rochester Near Rd, New York, USA",43.145021,-77.557608,35,2024-05-26T18:00:00+09:00,1
"Lompoc-South H Street, Santa Barbara, California",34.63782,-120.4575,46,2024-05-27T03:00:00+09:00,1
"Gridley, Butte, California",39.32756,-121.66881,30,2024-05-27T03:00:00+09:00,1
"Ashburn - Broad Run High School, Northern Virginia, USA",39.02473,-77.48925,32,2024-05-27T03:00:00+09:00,1
"Bangor MSS, Maine, USA",44.817398,-68.772762,11,2024-05-27T04:00:00+09:00,1
Boston,42.3584308,-71.0597732,55,2024-05-27T03:00:00+09:00,1
"Carpenter, Des Moines, Iowa, USA",41.603056,-93.643056,40,2024-05-27T03:00:00+09:00,1
"Grand Parc, Bordeaux, Aquitaine, France",44.858413102209,-0.584282227097,30,2024-05-27T03:00:00+09:00,1
"Halifax Johnston, Nova Scotia, Canada",44.647175,-63.573689,11,2024-05-27T03:00:00+09:00,1
"Jackson Road, Sarasota, Florida, USA",27.089166666667,-82.3625,51,2024-05-27T05:00:00+09:00,1
"Leggett, North Carolina, USA",35.9889,-77.5867,50,2024-05-27T04:00:00+09:00,1
"Public School 274, New York, USA",40.69454,-73.92769,52,2024-05-26T18:00:00+09:00,1
"US Embassy, Guatemala City, Guatemala",14.6069387,-90.5169696,99,2024-05-27T03:00:00+09:00,1
"Italy, fort Worth, Dallas, Texas",32.1754284,-96.8701803,34,2024-05-27T04:00:00+09:00,1
"Waco Mazanec, Waco, Texas",31.6530743,-97.0706982,98,2024-05-27T04:00:00+09:00,1
"SDS01, Mérida, Yucatán, Mexico",20.973272222222,-89.624811111111,0,2024-05-21T20:00:00+09:00,1
"I-25 Globeville, Colorado, USA",39.785622,-104.98846,24,2024-05-27T02:00:00+09:00,1
"Marshall, Minnesota, USA",44.4572,-95.835,38,2024-05-27T04:00:00+09:00,1
"Cartuja, Jerez De La Frontera, Spain",36.660862855128,-6.1144943386183,44,2024-05-27T03:00:00+09:00,1
"Aranda de Duero II, Burgos, Spain",41.665555555556,-3.688888888889,38,2024-05-27T02:00:00+09:00,1
"Seabrook Friendship Park, Houston, Texas",29.5830473,-95.0155437,86,2024-05-27T03:00:00+09:00,1
"Coachline, Pima County, USA",32.380816,-111.127157,99,2024-05-27T04:00:00+09:00,1
"Rifle PM, Colorado, USA",39.5318,-107.78229,5,2024-05-26T16:00:00+09:00,1
"Tena Artigas-Sta Cruz de Tenerife, Canarias, Spain",28.455563738546,-16.27677966917,55,2024-05-27T02:00:00+09:00,1
"Tiverton, Ontario, Canada",44.314472,-81.549722,36,2024-05-27T05:00:00+09:00,1
"Metepec, Toluca, Mexico",19.270192914173,-99.595307048355,139,2024-05-27T02:00:00+09:00,1
"Finanzas, Saltillo, Coahuila, Mexico",25.421472222222,-100.99686111111,0,2024-05-25T17:00:00+09:00,1
"Smithfield, Cache, Utah",41.842729207957,-111.85194721011,34,2024-05-27T03:00:00+09:00,1
"Pocatello, Idaho, USA",42.87667,-112.45972,41,2024-05-27T03:00:00+09:00,1
"Parkway East, Allegheny, Pennsylvania, USA",40.4045579,-79.9102686,43,2024-05-27T01:00:00+09:00,1
"Apodaca, Nuevo Leon, Mexico",25.7815621,-100.1875974,0,2024-05-25T05:00:00+09:00,1
"Durango, Durango, Mexico",24.03447,-104.64503,66,2024-05-27T04:00:00+09:00,1
"Piru - Pacific, Ventura, California",34.40426,-118.80991,30,2024-05-27T03:00:00+09:00,1
Ware,42.298279,-72.333904,50,2024-05-27T03:00:00+09:00,1
"Shenandoah National Park - Big Meadows, Shenandoah National Park, USA",38.5228,-78.43487,29,2024-05-27T03:00:00+09:00,1
"Hickory, North Carolina, USA",35.73,-81.37,30,2024-05-27T04:00:00+09:00,1
"VA Tech Agricultural Research Center, Hampton Roads, USA",36.66525,-76.73078,19,2024-05-27T03:00:00+09:00,1
"Lantana Preserve, Palm Beach, Florida, USA",26.593888888889,-80.058611111111,46,2024-05-27T05:00:00+09:00,1
"Lebanon, Ohio, USA",39.42689,-84.20077,53,2024-05-27T04:00:00+09:00,1
"Cicero2, Illinois, USA",41.864329,-87.748826,44,2024-05-27T04:00:00+09:00,1
"Waukesha-cleveland Ave., Wisconsin, USA",43.02012,-88.21505,36,2024-05-27T04:00:00+09:00,1
"Conroe Relocated, Houston, Texas",30.3503017,-95.4251278,112,2024-05-27T03:00:00+09:00,1
"Niland-English Road, Imperial, California",33.21349,-115.54514,39,2024-05-27T03:00:00+09:00,1
"Joshua Tree NP - Cottonwood #2, Riverside, California",33.74724,-115.82012,43,2024-05-27T03:00:00+09:00,1
"Prado Rey, Prado Del Rey, Spain",36.79449085648,-5.5316277203552,56,2024-05-27T02:00:00+09:00,1
"Adeq-dsr, Arkansas, USA",34.6811,-92.3283,73,2024-05-27T02:00:00+09:00,1
"Hanover, Richmond, USA",37.60613,-77.2188,41,2024-05-27T02:00:00+09:00,1
"C.P.Ochando, Almassora, Valencia, Spain",39.945277777778,-0.056388888888889,50,2024-05-27T02:00:00+09:00,1
"Miami Fire Station - Station #5, Miami-Dade, Florida, USA",25.794722222222,-80.215555555556,30,2024-05-27T05:00:00+09:00,1
"Melbourne, Brevard, Florida, USA",28.053611111111,-80.628611111111,21,2024-05-27T05:00:00+09:00,1
"Accra US Embassy, Ghana",5.580642,-0.170724,46,2024-05-27T03:00:00+09:00,1
"Knight_p, Illinois, USA",38.088902,-88.625,39,2024-05-27T04:00:00+09:00,1
"Appleton Aal, Wisconsin, USA",44.30738,-88.39509,26,2024-05-27T04:00:00+09:00,1
"Thibodaux site, Louisiana, USA",29.764425,-90.765563,34,2024-05-26T18:00:00+09:00,1
Los Angeles-North Main Street,34.06653,-118.22676,37,2024-05-27T03:00:00+09:00,1
"Baker City, Oregon, USA",44.78822,-117.8446,10,2024-05-27T03:00:00+09:00,1
"Mccall Usfs, Idaho, USA",44.890197,-116.1065,13,2024-05-27T03:00:00+09:00,1
"Lorca Zona Centro, Murcia, Spain",37.689508,-1.7010499413752,59,2024-05-27T04:00:00+09:00,1
"Algar de Palància, Valencia, Spain",39.782222222222,-0.35916666666667,53,2024-05-27T01:00:00+09:00,1
"Labastide Cézeracq, Aquitaine, France",43.376279251502,-0.538205629129,24,2024-05-27T04:00:00+09:00,1
"Maryvill, Tennessee, USA",35.7683,-83.9422,56,2024-05-27T05:00:00+09:00,1
"Lima, Ohio, USA",40.771,-84.0539,39,2024-05-27T04:00:00+09:00,1
"San Miguel De Allende Presidencia Municipal, Mexico",20.914755555556,-100.74380555556,0,2024-05-20T23:00:00+09:00,1
"Llchd Bam, Nebraska, USA",40.812558,-96.675733,9,2024-05-27T00:00:00+09:00,1
"Eagle, USA",39.6519,-106.8286,0,2024-05-26T07:00:00+09:00,1
"Caravaca Norte, Murcia, Spain",38.114666,-1.8687320609099,61,2024-05-27T04:00:00+09:00,1
"CDF - Arroyo Grande, San Luis Obispo, California",35.04676,-120.58777,34,2024-05-27T03:00:00+09:00,1
"Lake Elsinore-W Flint Street, Riverside",33.67653,-117.33104,27,2024-05-27T03:00:00+09:00,1
"Greensburg, Pennsylvania, USA",40.3053,-79.5061,36,2024-05-27T02:00:00+09:00,1
"Chanute, Kansas, USA",37.67696,-95.47594,57,2024-05-27T04:00:00+09:00,1
"Athens, Boulder-CU, Colorado, USA",40.012969,-105.267212,13,2024-05-27T02:00:00+09:00,1
"Hanford-S Irwin Street, Kings, California",36.31572,-119.64323,35,2024-05-27T03:00:00+09:00,1
"Sloughhouse, Sacramento, California",38.49444,-121.21115,27,2024-05-27T03:00:00+09:00,1
"Evansville-Buena Vista, Indiana, USA",38.0133,-87.5772,38,2024-05-27T03:00:00+09:00,1
"Healdton, Oklahoma, USA",34.256901,-97.474197,45,2024-05-27T04:00:00+09:00,1
"Pierre, South Dakota, USA",44.373786,-100.287269,19,2024-05-27T04:00:00+09:00,1
"Otay Mesa - Donovan Correctional Facility, San Diego, California",32.57944,-116.92944,29,2024-05-27T03:00:00+09:00,1
"Mission, Harlingen, Texas",26.2262097,-98.291069,157,2024-05-27T04:00:00+09:00,1
"Miller State Park, New Hampshire, USA",42.86183,-71.878626,42,2024-05-27T04:00:00+09:00,1
"Millville, NewJersey, USA",39.42227,-75.0252,55,2024-05-27T04:00:00+09:00,1
"Columbia, NewJersey, USA",40.924607,-75.067825,50,2024-05-27T04:00:00+09:00,1
"State College, Pennsylvania, USA",40.8114,-77.8769,38,2024-05-27T02:00:00+09:00,1
"West Union, Illinois, USA",39.210883,-87.668416,34,2024-05-27T04:00:00+09:00,1
"Brantford, Ontario, Canada",43.138611,-80.292639,53,2024-05-27T05:00:00+09:00,1
"Heritage Middle School, San Antonio, Texas",29.3529047,-98.3328207,153,2024-05-27T04:00:00+09:00,1
"San Juan, Puerto Rico",18.428388,-66.141657,0,2024-05-27T04:00:00+09:00,1
"Simi Valley - Cochran Street, Ventura, California",34.2764,-118.68375,42,2024-05-27T03:00:00+09:00,1
"Elciego, País Vasco, Spain",42.518248074241,-2.6194752119947,27,2024-05-27T01:00:00+09:00,1
"Lebanon, New Hampshire, USA",43.629605,-72.309499,41,2024-05-27T04:00:00+09:00,1
"Sycamore, Ohio, USA",39.2787,-84.36612,36,2024-05-27T04:00:00+09:00,1
"Toronto Downtown, Ontario, Canada",43.662972,-79.388111,46,2024-05-27T05:00:00+09:00,1
"Isla Blanca Park, Harlingen, Texas",26.0696153,-97.1621996,134,2024-05-27T03:00:00+09:00,1
"Baton Rouge Capitol site, Louisiana, USA",30.46198,-91.17922,57,2024-05-27T03:00:00+09:00,1
"Moore, Oklahoma, USA",35.32,-97.4883,47,2024-05-27T04:00:00+09:00,1
"Las Balsas-S. Andrés y Sauces, Canarias, Spain",28.805103596248,-17.782553513786,20,2024-05-27T02:00:00+09:00,1
"Bakersfield-California Avenue, Kern, California",35.35662,-119.06261,66,2024-05-27T03:00:00+09:00,1
"Rome, Georgia, USA",34.26054,-85.32333,55,2024-05-27T02:00:00+09:00,1
"Hobbs Jefferson, New Mexico, USA",32.72683,-103.12298,40,2024-05-27T02:00:00+09:00,1
"St. Joseph, Missouri, USA",39.741667,-94.858333,30,2024-05-27T04:00:00+09:00,1
"Pahala, Hawaii, USA",19.2039,-155.4801833,17,2024-05-27T04:00:00+09:00,1
"Pagoeta, Aia, País Vasco, Spain",43.250605219794,-2.1548873966665,30,2024-05-27T01:00:00+09:00,1
"Bridgeport, Connecticut, USA",41.171398,-73.195297,35,2024-05-27T04:00:00+09:00,1
"Tecnológico de Tepic, Tepic, Nayarit, Mexico",21.478177777778,-104.86774166667,58,2024-05-27T02:00:00+09:00,1
"King City - Pearl, Monterey, California",36.20902,-121.12596,30,2024-05-27T03:00:00+09:00,1
"Corrales de Buelna, Cantabria, Spain",43.2597761,-4.0669902,31,2024-05-27T02:00:00+09:00,1
"Valderejo, Gaubea, Valdegovía, País Vasco, Spain",42.875167093755,-3.231732505322,29,2024-05-27T01:00:00+09:00,1
"No. Bham, Alabama, USA",33.5531,-86.815,56,2024-05-27T04:00:00+09:00,1
"New Milford, Pennsylvania, USA",41.867336,-75.686602,25,2024-05-27T02:00:00+09:00,1
"Medina del Campo, Valladolid, Spain",41.316388888889,-4.909166666667,42,2024-05-27T02:00:00+09:00,1
"Villanueva Del Arzobispo, Spain",38.175027615369,-3.0051490926816,56,2024-05-27T03:00:00+09:00,1
"Dyerteom, Tennessee, USA",36.0528,-89.3819,21,2024-05-27T04:00:00+09:00,1
"SETRPC 42 Mauriceville, Beaumont, Texas",30.1946263,-93.8672095,0,2024-05-24T22:00:00+09:00,1
"Manteca AMS, San Joaquin, California",37.79338,-121.24779,37,2024-05-27T03:00:00+09:00,1
"Campanillas, Malaga, Spain",36.729856827275,-4.5596964603529,49,2024-05-27T03:00:00+09:00,1
"Albemarle High School, Charlottesville, USA",38.07657,-78.50397,28,2024-05-27T03:00:00+09:00,1
"Hattieaven, North Carolina, USA",36.1106,-80.2267,47,2024-05-27T04:00:00+09:00,1
"Liberty, Missouri, USA",39.303056,-94.376389,42,2024-05-27T04:00:00+09:00,1
"Vista View Park, Broward, Florida, USA",26.073055555556,-80.338888888889,30,2024-05-27T05:00:00+09:00,1
"Stilwell Castnet & Ncore, Oklahoma, USA",35.750599,-94.669701,53,2024-05-27T04:00:00+09:00,1
"High School E Campus, Muscatine, Iowa, USA",41.400968,-91.067957,27,2024-05-25T22:00:00+09:00,1
"Painesville - JFS, Ohio, USA",41.726811,-81.242156,43,2024-05-27T04:00:00+09:00,1
"Carmel Valley-Ford Road, Monterey, California",36.48187,-121.73333,61,2024-05-27T03:00:00+09:00,1
"Dona Park, Corpus Christi, Texas",27.8118142,-97.4657005,133,2024-05-27T04:00:00+09:00,1
"Newburgh, New York, USA",41.49918,-74.008886,53,2024-05-26T18:00:00+09:00,1
"Braidwd, Illinois, USA",41.2222,-88.1906,25,2024-05-27T04:00:00+09:00,1
"SUR, CHIH1, Chihuahua -Estatal, Mexico",28.632775,-106.03886694444,51,2024-05-27T02:00:00+09:00,1
"Kihei, Hawaii, USA",20.78099679,-156.4463732,42,2024-05-27T04:00:00+09:00,1
"Biarritz-Hippodrome, Aquitaine, France",43.470243708257,-1.553839137167,30,2024-05-27T04:00:00+09:00,1
"Springfield Ag, Illinois, USA",39.831921,-89.644164,22,2024-05-27T04:00:00+09:00,1
"Carlsbad, New Mexico, USA",32.38,-104.26222,0,2024-05-27T01:00:00+09:00,1
"Parr, Arkansas, USA",34.7561,-92.2758,79,2024-05-27T04:00:00+09:00,1
"Fernando Pó, Palmela, Portugal",38.635555555556,-8.6905555555556,33,2024-05-27T02:00:00+09:00,1
"Flemington, NewJersey, USA",40.51527,-74.80666,59,2024-05-27T04:00:00+09:00,1
"Toronto North, Ontario, Canada",43.781611,-79.417722,42,2024-05-27T05:00:00+09:00,1
"Tulsa, Oklahoma, USA",36.206699,-95.976402,80,2024-05-27T04:00:00+09:00,1
"Redding - Health Department, Shasta, California",40.55013,-122.38092,42,2024-05-27T03:00:00+09:00,1
"Oakridge - Willamette Activity Center, Oregon, USA",43.74436,-122.480506,10,2024-05-27T03:00:00+09:00,1
"Lourdes Lapacca, France",43.0979798,-0.0394276,28,2024-05-27T01:00:00+09:00,1
"Bee Ridge Park, Sarasota, Florida, USA",27.290555555556,-82.507222222222,36,2024-05-27T05:00:00+09:00,1
"Leeds, Alabama, USA",33.5453,-86.5492,52,2024-05-27T04:00:00+09:00,1
"Colfax-City Hall, Placer, California",39.09979,-120.95391,32,2024-05-27T03:00:00+09:00,1
"Sisters, Oregon, USA",44.2921,-121.5555,13,2024-05-27T03:00:00+09:00,1
"La Orden, Huelva, Spain",37.279635443733,-6.9380763558133,48,2024-05-27T02:00:00+09:00,1
"Palatka Barge Port, Putnam, Florida, USA",29.687777777778,-81.656388888889,49,2024-05-27T04:00:00+09:00,1
"Fair Hill, Maryland, USA",39.701099,-75.860001,42,2024-05-27T04:00:00+09:00,1
"Columbia, Tennessee, USA",35.65188,-87.0096,52,2024-05-27T04:00:00+09:00,1
"Johnstown, Pennsylvania, USA",40.3097,-78.9158,39,2024-05-27T02:00:00+09:00,1
"Roland, Oklahoma, USA",35.408138,-94.524414,33,2024-05-27T04:00:00+09:00,1
"Jerseyvl, Illinois, USA",39.101439,-90.344494,42,2024-05-27T04:00:00+09:00,1
"Echedo-Valverde, Canarias, Spain",27.831949454874,-17.921644512378,19,2024-05-27T02:00:00+09:00,1
"Bedar, Spain",37.193425220792,-1.985402375589,42,2024-05-27T03:00:00+09:00,1
"Buñol, Valencia, Spain",39.427222222222,-0.78388888888889,42,2024-05-27T02:00:00+09:00,1
"Larwill, Indiana, USA",41.169722,-85.629444,47,2024-05-27T04:00:00+09:00,1
"Corsicana Airport, fort Worth, Dallas, Texas",32.0319398,-96.3991377,105,2024-05-27T03:00:00+09:00,1
"Residencia Escolar-SS Gomera, Canarias, Spain",28.099159853054,-17.120428093412,25,2024-05-27T02:00:00+09:00,1
"Candor FRO, North Carolina, USA",35.2632,-79.8635,57,2024-05-27T04:00:00+09:00,1
"Rockwell, North Carolina, USA",35.551868,-80.395039,38,2024-05-27T04:00:00+09:00,1
"Zamora II, Spain",41.509722222222,-5.746388888889,38,2024-05-27T02:00:00+09:00,1
"Magdalena, Galicia, Spain",43.453888,-7.847812,30,2024-05-27T03:00:00+09:00,1
"Renéville, Martinique, France",14.614217,-61.053119,37,2024-05-26T23:00:00+09:00,1
"Centro, Aguascalientes, Mexico",21.883780555556,-102.295825,91,2024-05-27T02:00:00+09:00,1
"Truckee - Fire Station, Nevada, California",39.32782,-120.18459,21,2024-05-27T03:00:00+09:00,1
"Teixeiro, Galicia, Spain",43.140738,-8.033065,18,2024-05-27T03:00:00+09:00,1
"Ward, Alabama, USA",32.36253,-88.27792,42,2024-05-27T04:00:00+09:00,1
"Arendtsville, Pennsylvania, USA",39.9233,-77.3081,42,2024-05-27T02:00:00+09:00,1
"Research Farm, South Dakota, USA",44.348604,-96.807299,31,2024-05-27T04:00:00+09:00,1
"Reseda, Los Angeles",34.1992,-118.53275,49,2024-05-27T03:00:00+09:00,1
"Pinehurst-Forest Service, Fresno, California",36.69731,-119.0188,30,2024-05-27T03:00:00+09:00,1
"Sacramento-Del Paso Manor, Sacramento, California",38.61374,-121.36801,38,2024-05-27T03:00:00+09:00,1
"Sierra Norte, San Nicolas Del Puerto, Spain",37.994345416614,-5.6668733196776,52,2024-05-27T01:00:00+09:00,1
"Mammoth Cave NP, Kentucky, USA",37.1314,-86.1481,45,2024-05-27T03:00:00+09:00,1
"Kitchener, Ontario, Canada",43.443833,-80.503806,55,2024-05-27T05:00:00+09:00,1
"West Yellowstone Park Ent #2, Montana, USA",44.657014,-111.089618,17,2024-05-27T04:00:00+09:00,1
"Gomez Franqueira, Ourense, Galicia, Spain",42.353033,-7.877667,57,2024-05-27T03:00:00+09:00,1
"Stillwater, New York, USA",43.011906,-73.6491,0,2024-05-27T02:00:00+09:00,1
"Hville, Tennessee, USA",36.2975,-86.6525,36,2024-05-27T04:00:00+09:00,1
"Douglas Red Cross, Arizona, USA",31.3492,-109.539683,17,2024-05-27T04:00:00+09:00,1
"South Albany, New York, USA",42.6311,-73.76555,36,2024-05-27T02:00:00+09:00,1
"Haz2, Kentucky, USA",37.2831,-83.2203,31,2024-05-27T04:00:00+09:00,1
"Nogales Post Office, Arizona, USA",31.337204,-110.936722,21,2024-05-27T04:00:00+09:00,1
"Porterville, Tulare, California",36.03179,-119.05505,61,2024-05-27T03:00:00+09:00,1
"Frederick Co. Public School Maint. Dept., Winchester, USA",39.28101,-78.08157,28,2024-05-27T03:00:00+09:00,1
"Xinzo de Limia, Galicia, Spain",42.060731,-7.729869,31,2024-05-27T03:00:00+09:00,1
"Portland - Deering Oaks, Maine, USA",43.660248,-70.268967,17,2024-05-27T04:00:00+09:00,1
"Odessa Gonzales, Midland, Texas",31.8702534,-102.3347563,9,2024-05-27T03:00:00+09:00,1
"St Lukes Site, Idaho, USA",43.600699,-116.347853,40,2024-05-27T03:00:00+09:00,1
"Willows-Colusa, Glenn, California",39.53387,-122.19083,28,2024-05-27T03:00:00+09:00,1
"Abidjan US Embassy, Ivory Coast",5.36,-4.0083,162,2024-05-27T00:00:00+09:00,1
"Badlands, South Dakota, USA",43.746944,-101.941109,36,2024-05-27T03:00:00+09:00,1
"Bishop-White Mountain Research Center, Inyo, California",37.36075,-118.3308,36,2024-05-27T03:00:00+09:00,1
"Salamanca 5, Spain",40.979166666667,-5.665277777778,36,2024-05-27T02:00:00+09:00,1
"Indpls-W.18th St, Indiana, USA",39.7889,-86.2147,35,2024-05-27T04:00:00+09:00,1
"Sur, Galicia, Spain",42.713419,-7.451081,21,2024-05-27T03:00:00+09:00,1
"Arco de ladrillo II, Valladolid, Spain",41.645555555556,-4.7302777777778,17,2024-05-27T02:00:00+09:00,1
"Woodlawn Beach Middle School, Santa Rosa, Florida, USA",30.394166666667,-87.008055555556,43,2024-05-27T04:00:00+09:00,1
"Herman L. Horn Elementary School, Roanoke, USA",37.28342,-79.88452,30,2024-05-27T03:00:00+09:00,1
"San Luis De La Paz Presidencia Municipal, Mexico",21.295861111111,-100.52330555556,93,2024-05-27T03:00:00+09:00,1
"Houston Aldine, Houston, Texas",29.901037,-95.3261248,97,2024-05-27T03:00:00+09:00,1
"Fort Collins - CSU Facilities, Colorado, USA",40.571281,-105.079974,9,2024-05-27T02:00:00+09:00,1
"Amazon Park, Lane, USA",44.02627,-123.0838,23,2024-05-27T02:50:00+09:00,1
"Politècnic, València, Valencia, Spain",39.479722222222,-0.3375,59,2024-05-27T02:00:00+09:00,1
Milton Blue Hill Observatory,42.211674,-71.113864,53,2024-05-27T02:00:00+09:00,1
"Chatfield Park, Colorado, USA",39.534488,-105.070358,25,2024-05-27T03:00:00+09:00,1
"Jamesvil, North Carolina, USA",35.8111,-76.9067,32,2024-05-27T04:00:00+09:00,1
"Buffalo Near Road, New York, USA",42.92111,-78.76611,60,2024-05-26T18:00:00+09:00,1
"Kokomo - E. Vaile Ave., Indiana, USA",40.481349,-86.109718,46,2024-05-27T03:00:00+09:00,1
"Palacio Municipal, Morelia, Mexico",19.702153,-101.190948,93,2024-05-27T03:00:00+09:00,1
"Shreveport Downtown Airport site, Louisiana, USA",32.53626,-93.74891,89,2024-05-27T03:00:00+09:00,1
"Green Valley, Pima County, USA",31.87952,-110.99644,42,2024-05-27T04:00:00+09:00,1
"Keeler-Cerro Gordo Road, Inyo, California",36.48785,-117.87104,20,2024-05-27T03:00:00+09:00,1
"San Antonio-Breña Baja, Canarias, Spain",28.6473601,-17.7691698,24,2024-05-27T02:00:00+09:00,1
"Decatur, Illinois, USA",39.8669,-88.9256,42,2024-05-27T04:00:00+09:00,1
"Eldospgs, Missouri, USA",37.70097,-94.03474,60,2024-05-27T04:00:00+09:00,1
"McAlester, Oklahoma, USA",34.906082,-95.794128,54,2024-05-27T04:00:00+09:00,1
"Public Health, Iowa, USA",41.9767,-91.6878,31,2024-05-27T03:00:00+09:00,1
"Windsor Downtown, Ontario, Canada",42.315778,-83.043667,47,2024-05-27T05:00:00+09:00,1
"La Robla, León, Spain",42.802777777778,-5.623611111111,20,2024-05-27T02:00:00+09:00,1
"Daytona - Blind Services, Volusia, Florida, USA",29.206666666667,-81.0525,51,2024-05-27T05:00:00+09:00,1
"Clemmons Middle, North Carolina, USA",36.0261,-80.3419,42,2024-05-27T04:00:00+09:00,1
"Camp Pendleton, San Diego, California",33.21701,-117.39616,27,2024-05-27T03:00:00+09:00,1
"Yosemite Village - Visitor Center, Mariposa, California",37.74871,-119.58709,8,2024-05-27T03:00:00+09:00,1
"Rock Creek, Idaho, USA",42.565089,-114.494717,5,2024-05-27T01:00:00+09:00,1
"Mediterraneo, Almeria, Spain",36.841333200081,-2.4467199601201,35,2024-05-27T03:00:00+09:00,1
"Sobreiras-Lordelo do Ouro, Porto, Portugal",41.1475,-8.6588888888889,33,2024-05-27T02:00:00+09:00,1
"Potosi, Wisconsin, USA",42.69302,-90.69813,23,2024-05-27T04:00:00+09:00,1
"Roosevelt, Duchesne, Utah",40.2942336769,-110.00897605934,40,2024-05-27T04:00:00+09:00,1
"Pinedale, Wyoming, USA",42.9288,-109.788,45,2024-05-27T04:00:00+09:00,1
"Niebla, Spain",37.3606681457,-6.6766767452942,20,2024-05-27T03:00:00+09:00,1
"Sebastopol-103 Morris Street, Sonoma, California",38.403765,-122.818294,0,2024-05-24T00:00:00+09:00,1
"Canton, Ohio, USA",40.800797,-81.372853,48,2024-05-27T04:00:00+09:00,1
Worcester Summer St,42.263877,-71.794186,44,2024-05-27T03:00:00+09:00,1
"Mlk, Delaware, USA",39.7394,-75.5581,52,2024-05-27T04:00:00+09:00,1
"Allentown, Pennsylvania, USA",40.860004,-75.429614,49,2024-05-27T02:00:00+09:00,1
"Etown2, Kentucky, USA",37.7064,-85.8517,48,2024-05-27T04:00:00+09:00,1
"Socorro Hueco, El Paso, Texas",31.6675,-106.288,41,2024-05-27T03:00:00+09:00,1
"Tahoe City-221 Fairway Drive, Placer, California",39.166017,-120.148833,37,2024-05-27T03:00:00+09:00,1
"John Day, Oregon, USA",44.418,-118.9513,8,2024-05-27T03:00:00+09:00,1
"Purificación Tomás, Asturias, Spain",43.3619145,-5.8493887,34,2024-05-27T02:00:00+09:00,1
"El Lauredal, Asturias, Spain",43.542777777778,-5.7091666666667,30,2024-05-27T00:00:00+09:00,1
"Harrisburg, Pennsylvania, USA",40.246992,-76.846988,40,2024-05-27T02:00:00+09:00,1
"Pinnacle, New York, USA",42.091154,-77.209883,15,2024-05-27T02:00:00+09:00,1
"Look Rock - GSMNP, Tennessee, USA",35.6322,-83.9422,38,2024-05-27T05:00:00+09:00,1
"Athens, Tennessee, USA",35.4511,-84.5992,68,2024-05-27T05:00:00+09:00,1
"Gadsden, Alabama, USA",33.991341,-85.992653,35,2024-05-27T04:00:00+09:00,1
"Taft, Ohio, USA",39.12886,-84.50404,41,2024-05-27T04:00:00+09:00,1
"La Rabida, Palos De La Frontera, Spain",37.199764608762,-6.9202680109664,31,2024-05-27T02:00:00+09:00,1
"Iron, Utah",37.7854715,-113.1918021,39,2024-05-27T04:00:00+09:00,1
"Westlake site, Louisiana, USA",30.262347,-93.284906,60,2024-05-27T03:00:00+09:00,1
"Pascagoula, Mississippi, USA",30.377501,-88.533897,30,2024-05-27T04:00:00+09:00,1
"Waterbury, Connecticut, USA",41.5503,-73.0442,47,2024-05-27T04:00:00+09:00,1
"Sarnia, Ontario, Canada",42.982278,-82.405083,44,2024-05-27T05:00:00+09:00,1
"Naperville, Illinois, USA",41.7714,-88.1522,32,2024-05-27T04:00:00+09:00,1
"kc, Wy, Kansas, USA",39.1175,-94.6356,45,2024-05-27T04:00:00+09:00,1
"Water Tower, Waterloo, Iowa, USA",42.5014,-92.315804,17,2024-05-27T03:00:00+09:00,1
"Apple Valley, Minnesota, USA",44.7383,-93.2372,22,2024-05-27T04:00:00+09:00,1
"São Gonçalo, Funchal, Portugal",32.649722222222,-16.918333333333,36,2024-05-27T02:00:00+09:00,1
"Altoona, Pennsylvania, USA",40.515,-78.3889,35,2024-05-27T02:00:00+09:00,1
"Williams Middle School, South Carolina, USA",34.2143,-79.7673,43,2024-05-27T04:00:00+09:00,1
"Greenville-ESC, South Carolina, USA",34.843899,-82.414597,25,2024-05-27T04:00:00+09:00,1
"Palacio de Gobierno, Tlaxcala, Tlaxcala, Mexico",19.317583333333,-98.237305555556,86,2024-05-27T03:00:00+09:00,1
"Dallas Hinton, fort Worth, Dallas, Texas",32.8200608,-96.8601165,126,2024-05-27T04:00:00+09:00,1
"Hillcrest HS, Missouri, USA",37.256069,-93.299692,62,2024-05-27T04:00:00+09:00,1
"Ashland Fire Department, Oregon, USA",42.1941083,-122.70864,14,2024-05-27T03:00:00+09:00,1
"Montg, Alabama, USA",32.4069,-86.2564,25,2024-05-27T04:00:00+09:00,1
"Londonderry - Moose Hill, New Hampshire, USA",42.862531,-71.38014,48,2024-05-27T04:00:00+09:00,1
"Eisenhower Park, New York, USA",40.743156,-73.585513,32,2024-05-26T18:00:00+09:00,1
"Dayton - Sinclair, Ohio, USA",39.758235,-84.197375,44,2024-05-27T04:00:00+09:00,1
"Hamilton Downtown, Ontario, Canada",43.257778,-79.861667,59,2024-05-27T05:00:00+09:00,1
"Normal, Illinois, USA",40.5169,-88.9975,55,2024-05-27T04:00:00+09:00,1
"South Pass, Wyoming, USA",42.5275,-108.7203,43,2024-05-27T03:00:00+09:00,1
"Davis-UCD Campus, Yolo, California",38.53455,-121.7734,31,2024-05-27T03:00:00+09:00,1
"El Maillo, Salamanca, Spain",40.570555555556,-6.2225,33,2024-05-27T02:00:00+09:00,1
"Rutland, Vermont, USA",43.608528,-72.98246,42,2024-05-27T04:00:00+09:00,1
"Pike2001, Kentucky, USA",37.4828,-82.5353,32,2024-05-27T04:00:00+09:00,1
"Columbus - Rocky Ford Rd, Indiana, USA",39.237457,-85.891332,33,2024-05-27T03:00:00+09:00,1
"Piney Run, Maryland, USA",39.705799,-79.011902,35,2024-05-27T04:00:00+09:00,1
"Uniontown, Pennsylvania, USA",39.900076,-79.7164326,43,2024-05-27T02:00:00+09:00,1
"Arrecife, Canarias, Spain",28.977028445129,-13.547569270312,26,2024-05-27T02:00:00+09:00,1
"Remount, North Carolina, USA",35.213171,-80.874084,46,2024-05-27T04:00:00+09:00,1
"Riverside, Tennessee, USA",35.0508,-85.2931,59,2024-05-27T05:00:00+09:00,1
"Washington, Utah",37.179,-113.3052,42,2024-05-27T04:00:00+09:00,1
"Bend, Oregon, USA",44.063916,-121.312554,13,2024-05-27T03:00:00+09:00,1
"St De Baie Mahault, Guadeloupe, France",16.257308,-61.591725,14,2024-05-27T02:00:00+09:00,1
"Port Stanley, Ontario, Canada",42.672083,-81.162889,42,2024-05-27T05:00:00+09:00,1
"Tulancingo, Hidalgo, Mexico",20.08525,-98.366638888889,62,2024-05-27T03:00:00+09:00,1
"Charleroi, Pennsylvania, USA",40.1469,-79.9033,46,2024-05-27T02:00:00+09:00,1
"Gport Yc, Mississippi, USA",30.39,-89.0497,30,2024-05-27T04:00:00+09:00,1
"Ft Lee Near Road, NewJersey, USA",40.85355,-73.9661,64,2024-05-27T04:00:00+09:00,1
"Kingsport, Tennessee, USA",36.5408,-82.5217,35,2024-05-27T05:00:00+09:00,1
"Bloomington - Binford, Indiana, USA",39.159372,-86.504747,20,2024-05-27T04:00:00+09:00,1
"San Juanico, Mexico",20.537489,-100.839905,118,2024-05-27T02:00:00+09:00,1
"Kenner site, Louisiana, USA",30.040998,-90.272735,40,2024-05-27T03:00:00+09:00,1
"Joaquim Magalhães, Faro, Portugal",37.015,-7.9266666666667,22,2024-05-27T02:00:00+09:00,1
"Rural Retreat, Wythe County, USA",36.89117,-81.25423,17,2024-05-27T03:00:00+09:00,1
"Barrie, Ontario, Canada",44.382361,-79.702306,35,2024-05-27T05:00:00+09:00,1
"Quincy-N Church Street, Plumas, California",39.93957,-120.94438,21,2024-05-27T03:00:00+09:00,1
"Cornwall, Connecticut, USA",41.833099,-73.303299,39,2024-05-27T04:00:00+09:00,1
"Tartas Pelletrin, Aquitaine, France",43.838919922126,-0.812037212328,1,2024-05-27T01:00:00+09:00,1
"Durham Armory, North Carolina, USA",35.9919,-78.8964,53,2024-05-27T04:00:00+09:00,1
"Terre Haute-Lafayette Ave, Indiana, USA",39.4861,-87.4014,34,2024-05-27T04:00:00+09:00,1
"Salt Lake City, Utah",40.733501,-111.871696,38,2024-05-27T04:00:00+09:00,1
"Medford, Oregon, USA",42.229891,-122.7877,0,2024-05-21T13:00:00+09:00,1
"Ciudad Deportiva, Armilla, Spain",37.135559152614,-3.6192527581277,151,2024-05-27T01:00:00+09:00,1
"Chatham, Ontario, Canada",42.403694,-82.208306,48,2024-05-27T05:00:00+09:00,1
"Palacio Municipal Cuautla, Cuautla, Morelos, Mexico",18.812986944444,-98.955305833333,71,2024-05-27T03:00:00+09:00,1
"Deming Airport, New Mexico, USA",32.255833,-107.72266,16,2024-05-27T02:00:00+09:00,1
"Victorville - Park Avenue, San Bernardino, California",34.51096,-117.32555,46,2024-05-27T03:00:00+09:00,1
"Torre Hércules, A Coruña, Galicia, Spain",43.382786,-8.409211,42,2024-05-27T03:00:00+09:00,1
"Olivais, Lisboa, Portugal",38.768888888889,-9.1080555555556,35,2024-05-27T02:00:00+09:00,1
"Apollo Beach, Hillsborough, Florida, USA",27.779722222222,-82.419722222222,57,2024-05-27T05:00:00+09:00,1
"Rockford, Illinois, USA",42.267002,-89.08917,16,2024-05-27T04:00:00+09:00,1
"Ponca City, Oklahoma, USA",36.697189,-97.081278,71,2024-05-27T04:00:00+09:00,1
"Ncore, Nebraska, USA",41.2474,-95.9731,47,2024-05-27T04:00:00+09:00,1
"Credit Union, South Dakota, USA",44.087397,-103.273777,73,2024-05-27T03:00:00+09:00,1
"San Andreas-Gold Strike Road, Calaveras, California",38.20185,-120.68028,28,2024-05-27T03:00:00+09:00,1
"Monte Velho, Santiago do Cacém, Portugal",38.07694400006,-8.7986109999273,40,2024-05-27T01:00:00+09:00,1
"Museo de Antioquia, Medellín, Colombia",6.2525611,-75.5695801,80,2024-05-27T04:00:00+09:00,1
"Elkhart-Prairie St., Indiana, USA",41.656944,-85.96833,36,2024-05-27T03:00:00+09:00,1
"Spanish Fork, Utah, Utah",40.13623485066,-111.66015852648,38,2024-05-27T04:00:00+09:00,1
"El Cajon-Redwood Avenue, San Diego, California",32.7912,-116.9421,30,2024-05-27T03:00:00+09:00,1
"Motril, Spain",36.743118423685,-3.5173014215014,91,2024-05-27T02:00:00+09:00,1
"Killens, Delaware, USA",38.9847,-75.5556,39,2024-05-27T04:00:00+09:00,1
"Hinds CC, Mississippi, USA",32.346905,-90.225928,46,2024-05-27T04:00:00+09:00,1
"Florence Forestry Department, Oregon, USA",43.989668,-124.109308,8,2024-05-27T03:00:00+09:00,1
"Tallahassee Community College, Leon, Florida, USA",30.439722222222,-84.346388888889,48,2024-05-27T05:00:00+09:00,1
"Lathrop, Georgia, USA",32.090457,-81.130378,33,2024-05-27T02:00:00+09:00,1
"Chick., Alabama, USA",30.7697,-88.0875,38,2024-05-27T04:00:00+09:00,1
"Erie, Ohio, USA",41.644067,-83.54625,47,2024-05-27T04:00:00+09:00,1
"Arlington Municipal Airport, fort Worth, Dallas, Texas",32.6563574,-97.0885849,34,2024-05-27T04:00:00+09:00,1
"San Agustin, Canarias, Spain",27.772603802631,-15.541856141447,50,2024-05-27T01:00:00+09:00,1
"Millbrook NCore, North Carolina, USA",35.856098,-78.574203,44,2024-05-27T04:00:00+09:00,1
"Joliet, Illinois, USA",41.526885,-88.116474,21,2024-05-27T04:00:00+09:00,1
"Yuma Supersite, Arizona, USA",32.690277,-114.614441,24,2024-05-27T04:00:00+09:00,1
"Banning-Airport, Riverside",33.92077,-116.85841,30,2024-05-27T03:00:00+09:00,1
"Rio Vista-YS, Solano, California",38.167275,-121.68841667,38,2024-05-27T03:00:00+09:00,1
"Aljarafe, Mairena Del Aljarafe, Spain",37.340751482315,-6.0424588901852,65,2024-05-27T02:00:00+09:00,1
"Scranton, Pennsylvania, USA",41.4428,-75.6231,39,2024-05-27T02:00:00+09:00,1
"TK Gregg, South Carolina, USA",34.955601,-81.924797,31,2024-05-27T04:00:00+09:00,1
"Alamo Lake, Arizona, USA",34.243889,-113.558611,35,2024-05-27T04:00:00+09:00,1
"Paços de Ferreira, Paços de Ferreira, Portugal",41.274166666667,-8.3761111111111,26,2024-05-27T02:00:00+09:00,1
"Acadia NP - McFarland, Maine, USA",44.377048,-68.260902,19,2024-05-27T04:00:00+09:00,1
"London, Ohio, USA",39.78819,-83.47606,34,2024-05-27T04:00:00+09:00,1
"Northshore site, Madisonville, Louisiana, USA",30.429381,-90.199678,40,2024-05-27T03:00:00+09:00,1
"Holman Rd, New Mexico, USA",32.42472,-106.67417,8,2024-05-27T01:00:00+09:00,1
"Sumerduck - C. Phelps Wildlife Mgmt Area, Northern Virginia, USA",38.47367,-77.76772,17,2024-05-27T03:00:00+09:00,1
"Lewiston, Maine, USA",44.089355,-70.214134,30,2024-05-27T04:00:00+09:00,1
"Lancaster Downwind, Pennsylvania, USA",40.0439,-76.1125,50,2024-05-27T02:00:00+09:00,1
"Lockland, Tennessee, USA",36.1767,-86.7386,9,2024-05-27T04:00:00+09:00,1
"Tecnológico de Zacatepec, Zacatepec, Morelos, Mexico",18.654444444444,-99.183333333333,56,2024-05-27T03:00:00+09:00,1
"S. Catarina, Nuevo Leon, Mexico",25.6869003,-100.4220058,141,2024-05-27T03:00:00+09:00,1
"Austin Webberville Rd, Austin, Texas",30.2632079,-97.7128831,138,2024-05-27T04:00:00+09:00,1
"Kaufman, fort Worth, Dallas, Texas",32.5649518,-96.3176773,91,2024-05-27T03:00:00+09:00,1
"Mundaka, País Vasco, Spain",43.405888842943,-2.7031593675211,29,2024-05-27T01:00:00+09:00,1
"Shakopee, Minnesota, USA",44.789398,-93.512497,29,2024-05-27T04:00:00+09:00,1
"Santa Barbara-National Guard Armory, Santa Barbara, California",34.42775,-119.69091,25,2024-05-27T03:00:00+09:00,1
"Santa Fe Airport, New Mexico, USA",35.61975,-106.07968,45,2024-05-27T02:00:00+09:00,1
"Guaymaral, Bogota, Colombia",4.78374,-74.04417,15,2024-05-27T04:00:00+09:00,1
"San Salvador Centro, El Salavor",13.70630556,-89.20011667,72,2024-05-27T04:00:00+09:00,1
"NASA Langley Research Center, Hampton Roads, USA",37.10373,-76.38701,36,2024-05-27T03:00:00+09:00,1
"Huntsville Old Airport, Alabama, USA",34.6917,-86.591698,48,2024-05-27T04:00:00+09:00,1
"Clarksville, Tennessee, USA",36.5144,-87.3278,8,2024-05-27T01:00:00+09:00,1
"G.T.Craig, Ohio, USA",41.492191,-81.678552,44,2024-05-27T04:00:00+09:00,1
"Horicon, Wisconsin, USA",43.46611,-88.62111,31,2024-05-27T04:00:00+09:00,1
"Campus, Santiago, Galicia, Spain",42.876011,-8.559122,30,2024-05-27T03:00:00+09:00,1
"Mammoth Lakes-Gateway HC, Mono, California",37.64571,-118.96651,8,2024-05-27T03:00:00+09:00,1
"Oakland-Laney College, Alameda, California",37.793635,-122.263356,74,2024-05-27T03:00:00+09:00,1
"Niumalu, Hawaii, USA",21.9495,-159.365,0,2024-05-21T00:00:00+09:00,1
"Wauk-cleveland, Wisconsin, USA",43.9149942,-87.7473085,36,2024-05-27T04:00:00+09:00,1
"New Orleans City Park site, Louisiana, USA",29.993278,-90.101464,44,2024-05-27T03:00:00+09:00,1
"Hattiesburg, Mississippi, USA",31.322779,-89.287498,45,2024-05-27T04:00:00+09:00,1
"Danbury, Connecticut, USA",41.4014,-73.4447,53,2024-05-27T04:00:00+09:00,1
"Montoursville, Pennsylvania, USA",41.2508,-76.9239,42,2024-05-27T02:00:00+09:00,1
"Gwinnett Tech, Georgia, USA",33.96127,-84.06901,78,2024-05-27T02:00:00+09:00,1
"Glendale, Maricopa, USA",33.569166666667,-112.19138888889,51,2024-05-27T04:00:00+09:00,1
"Albany, Oregon, USA",44.61569,-123.091457,10,2024-05-27T03:00:00+09:00,1
"Río Cobo, Galicia, Spain",43.682562,-7.433673,28,2024-05-27T03:00:00+09:00,1
"Agurain, Salvatierra, País Vasco, Spain",42.849012505884,-2.3937033896082,29,2024-05-27T01:00:00+09:00,1
"Ponteareas, Galicia, Spain",42.180661,-8.5226,38,2024-05-27T02:00:00+09:00,1
"Mandarin Rd Site, Duval, Florida, USA",30.135833333333,-81.633888888889,51,2024-05-27T05:00:00+09:00,1
"Waveland, Mississippi, USA",30.3008,-89.395798,32,2024-05-27T04:00:00+09:00,1
"Irapuato Bomberos, Irapuato, Mexico",20.674779695762,-101.35569204208,99,2024-05-27T03:00:00+09:00,1
"Casper Gaseous, Wyoming, USA",42.82231,-106.36501,36,2024-05-27T03:00:00+09:00,1
"Palacio Municipal, Municipio de Mexicali, Baja California - Municipal, Mexico",32.640027777778,-115.47463888889,58,2024-05-27T01:00:00+09:00,1
"Sonega, Santiago do Cacém, Portugal",37.871111111111,-8.7238888888889,6,2024-05-27T02:00:00+09:00,1
"Atascadero-Lift Station #5, San Luis Obispo, California",35.49453,-120.66617,29,2024-05-27T03:00:00+09:00,1
"Leon IV, León, Spain",42.575277777778,-5.566388888889,37,2024-05-27T02:00:00+09:00,1
"Rumford, Maine, USA",44.5514,-70.5463,5,2024-05-27T03:00:00+09:00,1
"Ironton - ODOT, Ohio, USA",38.508114,-82.659301,34,2024-05-27T04:00:00+09:00,1
"Decatur, Alabama, USA",34.5286,-86.9706,38,2024-05-27T04:00:00+09:00,1
"Lacrosse Dot, Wisconsin, USA",43.7775,-91.2269,34,2024-05-27T04:00:00+09:00,1
"Hilo, Hawaii, USA",19.71756222,-155.1105295,13,2024-05-27T04:00:00+09:00,1
"Leitza, Navarra, Spain",43.0819,-1.9127,26,2024-05-27T02:00:00+09:00,1
"St. Andrews State Park, Bay, Florida, USA",30.130555555556,-85.731388888889,44,2024-05-27T04:00:00+09:00,1
"Groton Fort Griswold, Connecticut, USA",41.3536,-72.0789,27,2024-05-27T04:00:00+09:00,1
"Station Ptp Victoire, Guadeloupe, France",16.23674,-61.534101,14,2024-05-27T03:00:00+09:00,1
"Seaford, Delaware, USA",38.6444,-75.6131,42,2024-05-27T04:00:00+09:00,1
"Hamilton Mountain, Ontario, Canada",43.229417,-79.862778,59,2024-05-27T05:00:00+09:00,1
"El Charco-Pto del Rosario, Canarias, Spain",28.506155889377,-13.848975156333,38,2024-05-27T02:00:00+09:00,1
"National Seashore, Corpus Christi, Texas",27.4269883,-97.2987037,89,2024-05-27T03:00:00+09:00,1
"Cadereyta, Monterrey, Nuevo León, Mexico",25.600555555556,-99.994166666667,152,2024-05-27T03:00:00+09:00,1
"Yuba City, Sutter, California",39.13876,-121.61872,34,2024-05-27T03:00:00+09:00,1
"Belmopan US Embassy, Belize",17.256124,-88.77387,162,2024-05-27T04:00:00+09:00,1
"Burgos IV, Spain",42.336111111111,-3.636111111111,29,2024-05-27T02:00:00+09:00,1
"Crystal River Preserve, Citrus, Florida, USA",28.958611111111,-82.643055555556,36,2024-05-27T05:00:00+09:00,1
North Adams,42.702223,-73.110414,47,2024-05-27T02:00:00+09:00,1
"Athens, Georgia, USA",33.918067,-83.344495,52,2024-05-27T02:00:00+09:00,1
"Anderson-Eastside Elem. Sch, Indiana, USA",40.125557,-85.652222,36,2024-05-27T04:00:00+09:00,1
"Escobedo, Nuevo Leon, Mexico",25.7802165,-100.3161126,85,2024-05-27T03:00:00+09:00,1
"Forest Park, Missouri, USA",38.631057,-90.281144,45,2024-05-27T04:00:00+09:00,1
"Asomadilla, Cordoba, Spain",37.902741876631,-4.7795717960225,58,2024-05-27T02:00:00+09:00,1
"Tracy - Airport, San Joaquin, California",37.68268,-121.44238,24,2024-05-27T03:00:00+09:00,1
"Idaho City, Idaho, USA",43.823017,-115.838557,9,2024-05-27T03:00:00+09:00,1
"Blair Street, Missouri, USA",38.656449,-90.198548,42,2024-05-27T04:00:00+09:00,1
"Sandersville, Georgia, USA",32.974722,-82.808889,59,2024-05-27T02:00:00+09:00,1
"Fredericksburg Geomagnetic Observatory, Fredericksburg, USA",38.20087,-77.37742,16,2024-05-27T03:00:00+09:00,1
"Harriman, Tennessee, USA",35.9386,-84.5439,57,2024-05-27T05:00:00+09:00,1
"Ogden Dunes, Indiana, USA",41.6175,-87.1992,18,2024-05-27T02:00:00+09:00,1
"Hospital General, Mexico",20.947924,-101.425774,74,2024-05-27T02:00:00+09:00,1
"Avila II, Spain",40.664722222222,-4.700555555556,32,2024-05-27T02:00:00+09:00,1
"Tudela, Navarra, Spain",42.0613816,-1.6063169,35,2024-05-27T02:00:00+09:00,1
"Palencia III, Spain",42.019444444444,-4.538333333333,40,2024-05-27T02:00:00+09:00,1
"Lario, León, Spain",43.041111111111,-5.090555555556,24,2024-05-27T02:00:00+09:00,1
"Paynes Prairie State Park, Alachua, Florida, USA",29.566111111111,-82.266111111111,40,2024-05-27T05:00:00+09:00,1
"Vallejo, Solano, California",38.10251,-122.238,31,2024-05-27T03:00:00+09:00,1
"Chamusca, Chamusca, Portugal",39.3525,-8.4661111111111,37,2024-05-27T02:00:00+09:00,1
"HU-Beltsville, Maryland, USA",39.055302,-76.878304,61,2024-05-27T04:00:00+09:00,1
"Underhill, Vermont, USA",44.528389,-72.868973,39,2024-05-27T04:00:00+09:00,1
"Lebanon, Pennsylvania, USA",40.33733,-76.383446,44,2024-05-27T02:00:00+09:00,1
"Whiteface Base, New York, USA",44.393136,-73.858953,12,2024-05-26T18:00:00+09:00,1
"Eau Claire Dot, Wisconsin, USA",44.76249,-91.41445,31,2024-05-27T04:00:00+09:00,1
"Pittagct, North Carolina, USA",35.638599,-77.358002,50,2024-05-27T04:00:00+09:00,1
"Avda. Marconi, Cadiz, Spain",36.506015647598,-6.2685723945374,37,2024-05-27T03:00:00+09:00,1
"Lourinhã, Lourinhã, Portugal",39.278333333333,-9.2455555555556,34,2024-05-27T01:00:00+09:00,1
"Carvajal - Sevillana, Bogota, Colombia",4.5958,-74.14855,109,2024-05-27T04:00:00+09:00,1
"Kooker Park, Jacksonville, Duval, Florida, USA",30.356388888889,-81.635277777778,55,2024-05-27T05:00:00+09:00,1
"Warner Robins, Georgia, USA",32.6056,-83.597907,51,2024-05-26T20:00:00+09:00,1
"Freemansburg, Pennsylvania, USA",40.6281,-75.3411,48,2024-05-27T02:00:00+09:00,1
"Hagerstown, Maryland, USA",39.565601,-77.721901,44,2024-05-27T04:00:00+09:00,1
"Ronda Del Valle, Jaen, Spain",37.782545138335,-3.7815765485348,74,2024-05-27T02:00:00+09:00,1
"Madison-east, Wisconsin, USA",43.07378,-89.43595,54,2024-05-27T04:00:00+09:00,1
"Lafayette USGS site, Louisiana, USA",30.2175,-92.051389,57,2024-05-27T03:00:00+09:00,1
"Hamshire, Beaumont, Texas",29.8639525,-94.3177999,70,2024-05-27T03:00:00+09:00,1
"Rochester, Minnesota, USA",43.9947,-92.4497,38,2024-05-27T04:00:00+09:00,1
"Belleville, Ontario, Canada",44.150528,-77.3955,40,2024-05-27T05:00:00+09:00,1
"MSIC (MathScience Innovation Center), Richmond, USA",37.55652,-77.40027,43,2024-05-27T03:00:00+09:00,1
"St. Paul-Harding H.S., Minnesota, USA",44.9594,-93.0356,16,2024-05-27T04:00:00+09:00,1
"Cave Junction, Oregon, USA",42.1617,-123.64835,12,2024-05-27T03:00:00+09:00,1
"Stuart, Martin, Florida, USA",27.1725,-80.240555555556,27,2024-05-27T05:00:00+09:00,1
"Lyons, Oregon, USA",44.778743,-122.617048,10,2024-05-27T03:00:00+09:00,1
"Jackson, Tennessee, USA",35.6567,-88.8092,68,2024-05-27T04:00:00+09:00,1
"Watson, Kentucky, USA",38.0608,-85.8961,43,2024-05-27T04:00:00+09:00,1
"Cerro, Alcoutim, Portugal",37.312500000275,-7.6786109998237,31,2024-05-27T02:00:00+09:00,1
"Castle H, North Carolina, USA",34.3561,-77.8617,39,2024-05-27T04:00:00+09:00,1
"Bryson, North Carolina, USA",35.4356,-83.4436,30,2024-05-27T04:00:00+09:00,1
"Greeley - Hospital, Colorado, USA",40.414877,-104.70693,2,2024-05-27T01:00:00+09:00,1
"Los Tojos, Cantabria, Spain",43.154223,-4.2541657,27,2024-05-27T02:00:00+09:00,1
"Trenton, South Carolina, USA",33.7397,-81.8536,43,2024-05-27T04:00:00+09:00,1
"Northampton, North Carolina, USA",36.511708,-77.655389,50,2024-05-27T04:00:00+09:00,1
"Natural Bridge Station, Rockbridge County, USA",37.62668,-79.51257,16,2024-05-27T03:00:00+09:00,1
"Peoria_j, Illinois, USA",40.6978,-89.5889,24,2024-05-27T04:00:00+09:00,1
"Velódromo, Puebla, Mexico",19.115858055556,-98.277487222222,140,2024-05-27T03:00:00+09:00,1
"Chester, Plumas, California",40.30961,-121.22779,25,2024-05-27T03:00:00+09:00,1
"Chico - East Avenue, Butte, California",39.76168,-121.84047,34,2024-05-27T03:00:00+09:00,1
"Zorita del Maestrazgo, Valencia, Spain",40.735,-0.16944444444444,35,2024-05-27T02:00:00+09:00,1
"Iturrama, Pamplona, Navarra, Spain",42.8051351,-1.6536803,26,2024-05-27T02:00:00+09:00,1
"South DeKalb, Georgia, USA",33.68797,-84.29048,59,2024-05-27T02:00:00+09:00,1
"East Syracuse, New York, USA",43.052351,-76.059185,23,2024-05-27T02:00:00+09:00,1
"London, Ontario, Canada",42.97446,-81.200858,44,2024-05-27T05:00:00+09:00,1
"Primaria Melchor Ocampo, Tepeji, Hidalgo, Mexico",20.505555555556,-99.580277777778,88,2024-05-27T03:00:00+09:00,1
"Cheyenne NCore, Wyoming, USA",41.18222,-104.778336,40,2024-05-27T03:00:00+09:00,1
"Sand Island, Hawaii, USA",21.30383819,-157.8711711,25,2024-05-27T04:00:00+09:00,1
"Caudete de las Fuentes, Valencia, Spain",39.56,-1.2827777777778,44,2024-05-27T02:00:00+09:00,1
"Cayenne Caiena 3, Guyane, France",4.93785,-52.3209,19,2024-05-27T04:00:00+09:00,1
"Brigantine, NewJersey, USA",39.464872,-74.448736,30,2024-05-27T04:00:00+09:00,1
"Youngstown - Laird Ave., Ohio, USA",41.23172,-80.80116,37,2024-05-27T04:00:00+09:00,1
"Eagle Pass, Laredo, Texas",28.704607,-100.4511555,104,2024-05-27T03:00:00+09:00,1
"Alcantarilla Murcia Ciudad, Murcia, Spain",37.976182,-1.2307466261565,55,2024-05-27T04:00:00+09:00,1
"Charleston, West Virginia, USA",38.346258,-81.621161,42,2024-05-27T04:00:00+09:00,1
"Preble County, Ohio, USA",39.83562,-84.72049,42,2024-05-27T04:00:00+09:00,1
"Chiwaukee, Wisconsin, USA",42.50472,-87.8093,31,2024-05-27T04:00:00+09:00,1
"Benigánim, Valencia, Spain",38.9375,-0.44194444444444,36,2024-05-27T02:00:00+09:00,1
"Johnston, North Carolina, USA",35.5,-78.4375,42,2024-05-27T04:00:00+09:00,1
"Rutgers University, NewJersey, USA",40.46218,-74.42944,53,2024-05-27T04:00:00+09:00,1
"Chesterfield, South Carolina, USA",34.615299,-80.198898,49,2024-05-27T04:00:00+09:00,1
"Cherrygr, North Carolina, USA",36.3028,-79.4667,36,2024-05-27T04:00:00+09:00,1
"Cleveland, Mississippi, USA",33.750833,-90.734167,51,2024-05-27T04:00:00+09:00,1
"Entrecampos, Lisboa, Portugal",38.748611111111,-9.1488888888889,33,2024-05-27T02:00:00+09:00,1
"West Mesa, New Mexico, USA",32.27793,-106.86435,17,2024-05-27T02:00:00+09:00,1
"Erie, Pennsylvania, USA",42.1428,-80.0372,38,2024-05-27T02:00:00+09:00,1
"Seminole Community College, Seminole, Florida, USA",28.746111111111,-81.310555555556,44,2024-05-27T05:00:00+09:00,1
"Bennington, Vermont, USA",42.887501,-73.249702,43,2024-05-27T04:00:00+09:00,1
"Bded, North Carolina, USA",35.6075,-82.5833,25,2024-05-27T04:00:00+09:00,1
"Enoch, Iron, Utah",37.747338677287,-113.05551540249,39,2024-05-27T04:00:00+09:00,1
"Kernville-Forest Service, Kern, California",35.7533,-118.417,32,2024-05-27T03:00:00+09:00,1
"Lakeview, Oregon, USA",42.189215,-120.353969,10,2024-05-27T03:00:00+09:00,1
"Mem Martins, Sintra, Portugal",38.785,-9.3472222222222,37,2024-05-27T02:00:00+09:00,1
"Lafayette-Greenbush St, Indiana, USA",40.4316,-86.8525,28,2024-05-27T03:00:00+09:00,1
"Lawton North, Oklahoma, USA",34.632999,-98.428802,26,2024-05-27T04:00:00+09:00,1
"Utah, Utah",40.253502,-111.6632,38,2024-05-27T04:00:00+09:00,1
"Sweet Home, Oregon, USA",44.395791,-122.7305,11,2024-05-27T03:00:00+09:00,1
"Sydney, Hillsborough, Florida, USA",27.965555555556,-82.230277777778,57,2024-05-27T05:00:00+09:00,1
"Tooele, Utah",40.539299,-112.299797,38,2024-05-27T04:00:00+09:00,1
"Turlock-S Minaret Street, Stanislaus, California",37.48822,-120.83592,34,2024-05-27T03:00:00+09:00,1
"Uintah, Utah",40.4525801,-109.5094572,38,2024-05-27T04:00:00+09:00,1
"Cookeville, Tennessee, USA",36.1857,-85.4921,33,2024-05-27T04:00:00+09:00,1
"Lake City - Veterans Domicile, Columbia, Florida, USA",30.178055555556,-82.619166666667,58,2024-05-27T05:00:00+09:00,1
"York, Pennsylvania, USA",39.9653,-76.6994,50,2024-05-27T02:00:00+09:00,1
"Kingston, Ontario, Canada",44.219722,-76.521111,32,2024-05-27T05:00:00+09:00,1
"Karnack, Tyler, Texas",32.6689873,-94.1674569,95,2024-05-27T03:00:00+09:00,1
"Peck, Kansas, USA",37.4769,-97.3664,47,2024-05-27T04:00:00+09:00,1
"Corcoran-Patterson Avenue, Kings, California",36.1022,-119.56564,23,2024-05-27T03:00:00+09:00,1
"Belle Glade, Palm Beach, Florida, USA",26.724722222222,-80.666388888889,73,2024-05-27T05:00:00+09:00,1
"World Trade Bridge, Laredo, Texas",27.599444,-99.533333,107,2024-05-27T03:00:00+09:00,1
"Elda, Valencia, Spain",38.445,-0.80638888888889,42,2024-05-27T02:00:00+09:00,1
"Sprngdle, Arkansas, USA",36.1797,-94.1167,50,2024-05-27T03:00:00+09:00,1
"W Owen Sch, North Carolina, USA",35.041401,-78.953102,53,2024-05-27T04:00:00+09:00,1
"Segovia II, Spain",40.955555555556,-4.110555555556,38,2024-05-27T02:00:00+09:00,1
"Watertown, South Dakota, USA",44.89965,-97.128802,34,2024-05-27T04:00:00+09:00,1
"Aspen PM, Colorado, USA",39.192966,-106.823183,2,2024-05-27T00:00:00+09:00,1
"Marbella Arco, Marbella, Spain",36.508925815507,-4.8646305336459,49,2024-05-27T02:00:00+09:00,1
"Casa de Justicia Itagui, Medellín, Colombia",6.1856666,-75.5972061,65,2024-05-27T04:00:00+09:00,1
"W Greenwich, Rhode Island, USA",41.615,-71.7197,45,2024-05-27T04:00:00+09:00,1
"Wilkes-Barre, Pennsylvania, USA",41.2459149,-75.8813075,39,2024-05-27T02:00:00+09:00,1
"Harrington Bch, Wisconsin, USA",43.4983,-87.8102,27,2024-05-27T04:00:00+09:00,1
"Miranda de Ebro II, Burgos, Spain",42.688055555556,-2.940555555556,33,2024-05-27T02:00:00+09:00,1
"Klamath Falls, Oregon, USA",42.190296,-121.731369,8,2024-05-27T03:00:00+09:00,1
"Bondville, Illinois, USA",40.0519,-88.3724,42,2024-05-27T04:00:00+09:00,1
"Portola - Gulling Street, Plumas, California",39.81336,-120.47069,25,2024-05-27T02:00:00+09:00,1
"Laurel Oak Elementary, Collier, Florida, USA",26.27,-81.710833333333,39,2024-05-27T05:00:00+09:00,1
"Parklane, South Carolina, USA",34.093899,-80.962196,47,2024-05-27T04:00:00+09:00,1
"El Paso Chamizal, El Paso, Texas",31.7656976,-106.4552204,45,2024-05-27T03:00:00+09:00,1
"Lake Sugema, Iowa, USA",40.693298,-92.006104,42,2024-05-27T03:00:00+09:00,1
"Huron - 4th Street, Fresno, California",36.19865,-120.10117,13,2024-05-27T03:00:00+09:00,1
"Hartford-Huntley, Connecticut, USA",41.771444,-72.679923,52,2024-05-27T04:00:00+09:00,1
"St. Marks Wildlife Refuge, Wakulla, Florida, USA",30.0925,-84.161111111111,43,2024-05-27T05:00:00+09:00,1
"Gainesville, Georgia, USA",34.30008,-83.81217,92,2024-05-27T02:00:00+09:00,1
"Loretto, Tennessee, USA",35.116866,-87.419726,63,2024-05-27T04:00:00+09:00,1
"Farrell, Pennsylvania, USA",41.215,-80.485,42,2024-05-27T02:00:00+09:00,1
"Devils Lake, Wisconsin, USA",43.4351,-89.67979,30,2024-05-27T04:00:00+09:00,1
"Purísima Del Rincón Purísima Del Rincón, Mexico",21.040238888889,-101.87628333333,0,2024-05-20T23:00:00+09:00,1
"Seiling, Oklahoma, USA",36.1589,-98.9353,43,2024-05-27T04:00:00+09:00,1
"Sanchinarro, Madrid, Spain",40.494205,-3.660505,38,2024-05-27T03:00:00+09:00,1
"Colusa-Sunrise Blvd, Colusa, California",39.18919,-121.99887,30,2024-05-27T03:00:00+09:00,1
"Wind Cave, South Dakota, USA",43.557613,-103.483658,34,2024-05-27T03:00:00+09:00,1
"Cangas, Asturias, Spain",43.1773837,-6.5498404,38,2024-05-27T01:00:00+09:00,1
Fall River,41.683279,-71.169171,41,2024-05-27T03:00:00+09:00,1
"Florence, Pennsylvania, USA",40.4447,-80.42,45,2024-05-27T02:00:00+09:00,1
"Jefferson School, Davenport, Iowa, USA",41.530011,-90.587611,38,2024-05-27T03:00:00+09:00,1
"Ukiah - Library, Mendocino, California",39.15047,-123.20655,21,2024-05-27T03:00:00+09:00,1
"Sangüesa, Navarra, Spain",42.5744349,-1.2830851,27,2024-05-27T02:00:00+09:00,1
"Ocala - YMCA, Marion, Florida, USA",29.171388888889,-82.094722222222,43,2024-05-27T05:00:00+09:00,1
"Copan, Oklahoma, USA",36.908115,-95.88235,40,2024-05-27T04:00:00+09:00,1
"Hoover School, Iowa City, Iowa, USA",41.658195,-91.503471,21,2024-05-27T03:00:00+09:00,1
"Burns, Oregon, USA",43.58925,-119.04872,21,2024-05-27T03:00:00+09:00,1
"Santana, Santana, Portugal",32.807777777778,-16.886388888889,28,2024-05-27T02:00:00+09:00,1
"Kasugacho, Fukuyama, Hiroshima, Japan (培遠中学校福山市)",34.5118026,133.4116109,61,2024-05-27T04:00:00+09:00,1
Tangshan (唐山),39.630867,118.180194,76,2024-05-27T04:00:00+09:00,1
"Bardowali, Agartala, India",23.8175497,91.2726974,65,2024-05-27T03:30:00+09:00,1
"Water Company, Luliang (吕梁自来水公司)",37.5136,111.1297,41,2024-05-27T04:00:00+09:00,1
"Balikesir Bandirma, Turkey",40.348103,27.97499,0,2024-05-25T14:00:00+09:00,1
"ciutadella de menorca, Baleares, Spain",40.009439999471,3.85648,42,2024-05-27T02:00:00+09:00,1
"Yunqi, Hangzhou (杭州市云栖)",30.18083333,120.0883333,42,2024-05-27T04:00:00+09:00,1
"Muikamachi, Minamiuonuma, Niigata, Japan (六日町南魚沼市)",37.0661829,138.8774785,42,2024-05-27T03:00:00+09:00,1
"Da Nang, Vietnam (TP Đà Nẵng)",16.074,108.217,28,2024-05-27T04:00:00+09:00,1
"72nd Anniversary King Bhumibol Public Park, Uttaradit, Thailand (สวนมหามงคลเฉลิมพระชนมพรรษา 6 รอบ 5 ธันวาคม 2552 อุตรดิตถ์)",17.631352,100.09896,21,2024-05-27T04:00:00+09:00,1
"Provincial Administrative Stadium, Lamphun, Thailand (สนามกีฬาองค์การบริหารส่วนจังหวัดลำพูน)",18.567194,99.038639,30,2024-05-27T04:00:00+09:00,1
"Dubai Hatta, UAE",24.817594,56.131834,16,2024-05-27T04:00:00+09:00,1
"Mineyamacho Tanba, Kyotango, Kyoto Prefecture, Japan (京丹後京丹後市)",35.6262142,135.0731151,57,2024-05-27T03:00:00+09:00,1
"Labuan, Wilayah Persekutuan, Malaysia",5.298107,115.232106,37,2024-05-27T02:00:00+09:00,1
"Nagahisacho Nagahisa, Oda, Shimane, Japan (大田一般環境大気測定局大田市)",35.2046731,132.4994755,50,2024-05-27T03:00:00+09:00,1
"Yílíng district, Yichang (宜昌夷陵区)",30.7819,111.3296,76,2024-05-27T04:00:00+09:00,1
"Kocaeli Golcuk, Turkey",40.72597,29.79463,0,2024-05-25T14:00:00+09:00,1
"Arles, PACA, France",43.675114,4.62921,33,2024-05-27T04:00:00+09:00,1
"Sort, Catalunya, Spain",42.40538,1.1299304,32,2024-05-27T04:00:00+09:00,1
"Shimodamachi, Shinjo, Yamagata, Japan (新庄下田新庄市)",38.7575051,140.2986338,34,2024-05-27T03:00:00+09:00,1
"Dajijia, Yantai (烟台大季家)",37.67283315,121.0662505,50,2024-05-27T04:00:00+09:00,1
"Shazand, Markazy, Iran (شازند مركزی)",33.93376,49.402106,93,2024-05-27T04:30:00+09:00,1
"Hatay2 (Iskenderun), Turkey",36.714140379539,36.22391868221,0,2024-05-25T13:00:00+09:00,1
"Azdavay, Turkey",41.682081395105,33.493590403035,0,2024-05-25T14:00:00+09:00,1
"Gap Commanderie, PACA, France",44.555193,6.073015,36,2024-05-27T03:00:00+09:00,1
"Municipal Waste Water Pumping Station, Nakhon Ratchasima, Thailand (สถานีสูบน้ำเสีย เทศบาลนครราชสีมา)",14.979537,102.098335,53,2024-05-27T04:00:00+09:00,1
"Nishikimachi, Tsuruoka-shi, Yamagata-ken, Japan (鶴岡錦町鶴岡市)",38.7393017,139.8270665,21,2024-05-27T03:00:00+09:00,1
"五华水寨,  (梅州市五华水寨)",23.55473,115.465181,59,2024-05-27T03:00:00+09:00,1
"Imsil-eup, Jeonbuk, South Korea (임실읍 전북)",35.614526,127.286329,65,2024-05-27T04:00:00+09:00,1
"Hada Street, Chifeng (赤峰哈达街)",42.2725,118.9572,61,2024-05-27T04:00:00+09:00,1
"Bandhavgar Colony, Satna, India",24.58434363,80.8549414,137,2024-05-27T03:30:00+09:00,1
"Kashan, Isfahan, Iran (کاشان اصفهان)",33.993059,51.433695,89,2024-05-27T04:30:00+09:00,1
"Abuja US Embassy, Nigeria",9.0416479110718,7.4773740768433,66,2024-05-27T02:00:00+09:00,1
"Tokiwachō, Kitami-shi, Hokkaidō, Japan (北見市常磐町大気測定局舎北見市)",43.798243,143.890385,25,2024-05-27T03:00:00+09:00,1
"Changjiang pawn Bay, Changjiangxian (昌江县昌江棋子湾)",19.34972,108.68472,70,2024-05-27T00:00:00+09:00,1
"Cheongcheon-myeon, Chungbuk, South Korea (청천면 충북)",36.730926,127.804682,70,2024-05-27T04:00:00+09:00,1
"无线电监控中心, Xian (西安无线电监控中心)",34.5236,109.09,89,2024-05-27T04:00:00+09:00,1
"Suzu, Ishikawa, Japan (珠洲珠洲市)",37.4363473,137.2604364,25,2024-05-27T03:00:00+09:00,1
"EPA New Building, Alxa Meng (阿拉善盟环保局新楼)",38.8516,105.724,72,2024-05-27T04:00:00+09:00,1
"阳西城区,  (阳江市阳西城区)",21.756039,111.613483,42,2024-05-27T03:00:00+09:00,1
"北环路, Tianjin (天津北环路)",40.066111111111,117.42333333333,50,2024-05-27T04:00:00+09:00,1
"Shangzhou District Middle School, Shangluo (商洛商州区中学)",33.8471,109.9643,85,2024-05-27T04:00:00+09:00,1
"Dushanbe US Embassy, Tajikistan",38.55767,68.77592,61,2024-05-27T04:00:00+09:00,1
"Corum, Turkey",40.554377781265,34.963167915153,0,2024-05-25T13:00:00+09:00,1
"Aragno, Mondovi', Piemonte, Italy",44.388806,7.8297411,31,2024-05-27T02:00:00+09:00,1
"Lạng Sơn/Đông Tân - Hữu Lũng, Vietnam",21.539472,106.3625,14,2024-05-27T04:00:00+09:00,1
"Island/Taipower Shinren, Taiwan",23.550445,119.610741,57,2024-05-27T03:00:00+09:00,1
"Cheongsong-eup, Gyeongbuk, South Korea (청송읍 경북)",36.429289,129.056178,44,2024-05-27T04:00:00+09:00,1
"Jixian County Government, Hanzhong (汉中勉县政府)",33.154166670057,106.66916669958,95,2024-05-27T04:00:00+09:00,1
"Huda Sector, Fatehabad, India",29.503664,75.467934,94,2024-05-27T03:30:00+09:00,1
"Canakkale Lapseki, Turkey",40.40307,26.77063,0,2024-05-25T14:00:00+09:00,1
"Ballirana, Emilia Romagna, Italy",44.527432,11.982355,46,2024-05-26T06:00:00+09:00,1
"Sibu, Sarawak, Malaysia",2.314408,111.831916,23,2024-05-27T03:00:00+09:00,1
"High-tech Zone Water Company, Mianyang (绵阳高新区自来水公司)",31.4656,104.6717,68,2024-05-27T04:00:00+09:00,1
"Helanshan East Road, Yinchuan (银川贺兰山东路)",38.4975,106.2328,97,2024-05-27T04:00:00+09:00,1
"Sahilara, Maihar, India",24.2613009,80.7231783,86,2024-05-27T03:30:00+09:00,1
"Saint-Gaudens, France",43.104934996963,0.7191311179422,0,2024-05-27T01:00:00+09:00,1
"Ninth Middle School, Tongling (铜陵市第九中学)",30.8811,117.7442,70,2024-05-27T04:00:00+09:00,1
"Yeoui-dong, Jeonbuk, South Korea (여의동 전북)",35.869596,127.074632,107,2024-05-27T04:00:00+09:00,1
"Phoenix Square, Lijin County, Lijin County (利津县利津县凤凰广场)",37.481944,118.242778,76,2024-05-27T04:00:00+09:00,1
"Sector 6 Panchkula, Panchkula, India",30.7057778,76.853180555555,173,2024-05-27T03:30:00+09:00,1
"Sarajevo US Embassy, Bosnia Herzegovina",43.856667,18.398205,93,2024-05-27T04:00:00+09:00,1
"Showacho, Kushiro, Hokkaido Prefecture, Japan (昭和小学校釧路市)",43.0160229,144.3651532,13,2024-05-27T04:00:00+09:00,1
"Viareggio, Viareggio, Italy",43.881437296938,10.244316772468,0,2024-05-24T06:00:00+09:00,1
"shì zhí zhōng, Chenzhou (郴州市职中)",25.8226,113.0116,38,2024-05-27T04:00:00+09:00,1
"Hannyamachi, Noshiro, Akita, Japan (能代西能代市)",40.2110507,140.0197967,30,2024-05-27T03:00:00+09:00,1
"Pluakdaeng District Health Office, Thailand (สำนักงานสาธารณสุขอำเภอปลวกแดง)",12.97378333,101.21285,80,2024-05-27T04:00:00+09:00,1
"Kitatakanabe, Miyazaki Prefecture, Japan (高鍋町健康づくりセンター児湯郡高鍋町)",32.1319871,131.5086596,46,2024-05-27T03:00:00+09:00,1
"zhōukǒu shīfàn, Zhoukou (周口周口师范)",33.617874,114.665581,89,2024-05-27T04:00:00+09:00,1
"PWD Juction, Kohima, India",25.6635413,94.0989878,26,2024-05-27T03:30:00+09:00,1
"Ardahan, Turkey",41.106334018205,42.705246070182,0,2024-05-25T14:00:00+09:00,1
"Aliartos, Greece",38.37524796,23.11026764,28,2024-05-27T02:00:00+09:00,1
"Chuocho, Shibata, Niigata, Japan (新発田新発田市)",37.9520161,139.3304337,46,2024-05-27T03:00:00+09:00,1
"Sirnak, Turkey",37.521754902431,42.454870799663,0,2024-05-25T14:00:00+09:00,1
"DC-86, Năvodari, Romania",44.321111,28.613333,2,2024-05-27T04:00:00+09:00,1
"Chunyang Street, Chongqing (重庆春阳街)",30.207222,105.8425,119,2024-05-27T04:00:00+09:00,1
Anshan (鞍山),41.108546,122.994646,70,2024-05-27T04:00:00+09:00,1
"GVM Corporation, Visakhapatnam, India",17.72,83.3,149,2024-05-27T03:30:00+09:00,1
"Hojatiyeh Bridge, Qom, Iran (پل حجتیه قُم قم)",34.640423,50.873217,88,2024-05-27T04:30:00+09:00,1
"Baku US Embassy, Azerbaijan",40.386993,49.842945,0,2024-05-26T19:00:00+09:00,1
"Ermenek, Turkey",36.640537,32.884881,0,2024-05-25T14:00:00+09:00,1
"Amposta, Catalunya, Spain",40.706707,0.5816515,37,2024-05-27T04:00:00+09:00,1
"Sri Aman, Sarawak, Malaysia",1.219656,111.464792,21,2024-05-27T03:00:00+09:00,1
"Vibhab Nagar, Firozabad, India",27.1594,78.3953,104,2024-05-27T03:30:00+09:00,1
"Police Lines, Jind, India",29.307814,76.337619,123,2024-05-27T03:30:00+09:00,1
"Abuseridze street, Batumi, Georgia",41.640908,41.624101,37,2024-05-27T03:00:00+09:00,1
"Rodez, France",44.35699225,2.570704222,36,2024-05-26T22:00:00+09:00,1
"Weishan Rongshang Group, Weishan County (微山县微山荣商集团)",34.790556,117.144722,57,2024-05-27T04:00:00+09:00,1
"Behbahan, Khouzestan, Iran (بهبهان خوزستان)",30.5937352,50.2275823,74,2024-05-27T04:30:00+09:00,1
"Kampala US Embassy, Uganda",0.300225,32.591553,76,2024-05-27T04:00:00+09:00,1
"Gymnasium, Yingtan (鹰潭体育馆)",28.2264,117.0222,63,2024-05-27T04:00:00+09:00,1
Kurashiki (倉敷),34.5850134,133.7720841,93,2024-05-27T03:00:00+09:00,1
